{
  "generatedAt": "2026-06-18T14:46:28.358Z",
  "source": {
    "strategy": "API jako źródło bieżących rekordów i współrzędnych; Excel oraz HTML do uzupełnienia osiedli i kontroli kompletności",
    "tableUrl": "https://gabaryty.ekosystem.wroc.pl/tabela-wywozu-odpadow/",
    "downloadsUrl": "https://gabaryty.ekosystem.wroc.pl/wywoz-odpadow-wielkogabarytowych-tabele/",
    "apiUrl": "https://gabaryty.ekosystem.wroc.pl/wp-admin/admin-ajax.php",
    "excelUrl": "https://gabaryty.ekosystem.wroc.pl/wp-content/uploads/2026/03/Harmonogram-podstawien-kontenerow-na-odpady-wielkogabarytowe-kwiecien-czerwiec-2026.xlsx"
  },
  "containers": [
    {
      "id": "eko-848f00c6951aea42",
      "address": "Ziębicka 52",
      "district": "Tarnogaj",
      "startDate": "2026-06-15",
      "endDate": "2026-06-17",
      "lat": 51.078244062,
      "lng": 17.057474993,
      "sourceMapUrl": "https://gabaryty.ekosystem.wroc.pl/?lat=51.078244062&lng=17.057474993&zoom=16&marker=2378",
      "sourcePageUrl": "https://gabaryty.ekosystem.wroc.pl/tabela-wywozu-odpadow/",
      "syncVersion": "2026-06-18T14:46:28.358Z",
      "syncedAt": "2026-06-18T14:46:28.358Z"
    },
    {
      "id": "eko-68dc47818157b57b",
      "address": "adm. Unruga 17",
      "district": "Ołtaszyn",
      "startDate": "2026-06-16",
      "endDate": "2026-06-18",
      "lat": 51.055520279,
      "lng": 17.015191742,
      "sourceMapUrl": "https://gabaryty.ekosystem.wroc.pl/?lat=51.055520279&lng=17.015191742&zoom=16&marker=3",
      "sourcePageUrl": "https://gabaryty.ekosystem.wroc.pl/tabela-wywozu-odpadow/",
      "syncVersion": "2026-06-18T14:46:28.358Z",
      "syncedAt": "2026-06-18T14:46:28.358Z"
    },
    {
      "id": "eko-b632c4cd59fdb534",
      "address": "al. gen. Hallera 101",
      "district": "Grabiszyn - Grabiszynek",
      "startDate": "2026-06-16",
      "endDate": "2026-06-18",
      "lat": 51.090469076,
      "lng": 16.99425891,
      "sourceMapUrl": "https://gabaryty.ekosystem.wroc.pl/?lat=51.090469076&lng=16.99425891&zoom=16&marker=16",
      "sourcePageUrl": "https://gabaryty.ekosystem.wroc.pl/tabela-wywozu-odpadow/",
      "syncVersion": "2026-06-18T14:46:28.358Z",
      "syncedAt": "2026-06-18T14:46:28.358Z"
    },
    {
      "id": "eko-b5cc83d70aed2f5b",
      "address": "al. gen. Hallera 104",
      "district": "Grabiszyn - Grabiszynek",
      "startDate": "2026-06-16",
      "endDate": "2026-06-18",
      "lat": 51.09014154,
      "lng": 16.992382508,
      "sourceMapUrl": "https://gabaryty.ekosystem.wroc.pl/?lat=51.09014154&lng=16.992382508&zoom=16&marker=17",
      "sourcePageUrl": "https://gabaryty.ekosystem.wroc.pl/tabela-wywozu-odpadow/",
      "syncVersion": "2026-06-18T14:46:28.358Z",
      "syncedAt": "2026-06-18T14:46:28.358Z"
    },
    {
      "id": "eko-bce4e150ffa883a2",
      "address": "al. Poprzeczna 50",
      "district": "Sołtysowice",
      "startDate": "2026-06-16",
      "endDate": "2026-06-18",
      "lat": 51.14352729,
      "lng": 17.081660598,
      "sourceMapUrl": "https://gabaryty.ekosystem.wroc.pl/?lat=51.14352729&lng=17.081660598&zoom=16&marker=61",
      "sourcePageUrl": "https://gabaryty.ekosystem.wroc.pl/tabela-wywozu-odpadow/",
      "syncVersion": "2026-06-18T14:46:28.358Z",
      "syncedAt": "2026-06-18T14:46:28.358Z"
    },
    {
      "id": "eko-6bf25b7b24314add",
      "address": "Arachidowa 17",
      "district": "Leśnica",
      "startDate": "2026-06-16",
      "endDate": "2026-06-18",
      "lat": 51.15511981,
      "lng": 16.903463258,
      "sourceMapUrl": "https://gabaryty.ekosystem.wroc.pl/?lat=51.15511981&lng=16.903463258&zoom=16&marker=75",
      "sourcePageUrl": "https://gabaryty.ekosystem.wroc.pl/tabela-wywozu-odpadow/",
      "syncVersion": "2026-06-18T14:46:28.358Z",
      "syncedAt": "2026-06-18T14:46:28.358Z"
    },
    {
      "id": "eko-33a8ef2191a98d7b",
      "address": "Bacciarellego 1",
      "district": "Biskupin - Sępolno - Dąbie - Bartoszowice",
      "startDate": "2026-06-16",
      "endDate": "2026-06-18",
      "lat": 51.105276057,
      "lng": 17.110189497,
      "sourceMapUrl": "https://gabaryty.ekosystem.wroc.pl/?lat=51.105276057&lng=17.110189497&zoom=16&marker=93",
      "sourcePageUrl": "https://gabaryty.ekosystem.wroc.pl/tabela-wywozu-odpadow/",
      "syncVersion": "2026-06-18T14:46:28.358Z",
      "syncedAt": "2026-06-18T14:46:28.358Z"
    },
    {
      "id": "eko-4f6b5b1291583d06",
      "address": "Bacciarellego 33",
      "district": "Biskupin - Sępolno - Dąbie - Bartoszowice",
      "startDate": "2026-06-16",
      "endDate": "2026-06-18",
      "lat": 51.104214883,
      "lng": 17.112830146,
      "sourceMapUrl": "https://gabaryty.ekosystem.wroc.pl/?lat=51.104214883&lng=17.112830146&zoom=16&marker=96",
      "sourcePageUrl": "https://gabaryty.ekosystem.wroc.pl/tabela-wywozu-odpadow/",
      "syncVersion": "2026-06-18T14:46:28.358Z",
      "syncedAt": "2026-06-18T14:46:28.358Z"
    },
    {
      "id": "eko-97ee0ff06188d779",
      "address": "Bacciarellego 38",
      "district": "Biskupin - Sępolno - Dąbie - Bartoszowice",
      "startDate": "2026-06-16",
      "endDate": "2026-06-18",
      "lat": 51.105150428,
      "lng": 17.114965346,
      "sourceMapUrl": "https://gabaryty.ekosystem.wroc.pl/?lat=51.105150428&lng=17.114965346&zoom=16&marker=97",
      "sourcePageUrl": "https://gabaryty.ekosystem.wroc.pl/tabela-wywozu-odpadow/",
      "syncVersion": "2026-06-18T14:46:28.358Z",
      "syncedAt": "2026-06-18T14:46:28.358Z"
    },
    {
      "id": "eko-ca2b5a4e4ae31040",
      "address": "Balonowa 39",
      "district": "Gądów - Popowice Płd.",
      "startDate": "2026-06-16",
      "endDate": "2026-06-18",
      "lat": 51.122676981,
      "lng": 16.963468118,
      "sourceMapUrl": "https://gabaryty.ekosystem.wroc.pl/?lat=51.122676981&lng=16.963468118&zoom=16&marker=103",
      "sourcePageUrl": "https://gabaryty.ekosystem.wroc.pl/tabela-wywozu-odpadow/",
      "syncVersion": "2026-06-18T14:46:28.358Z",
      "syncedAt": "2026-06-18T14:46:28.358Z"
    },
    {
      "id": "eko-e98bde1c76e02cca",
      "address": "Birmańska 1",
      "district": "Brochów",
      "startDate": "2026-06-16",
      "endDate": "2026-06-18",
      "lat": 51.061774151,
      "lng": 17.084451996,
      "sourceMapUrl": "https://gabaryty.ekosystem.wroc.pl/?lat=51.061774151&lng=17.084451996&zoom=16&marker=130",
      "sourcePageUrl": "https://gabaryty.ekosystem.wroc.pl/tabela-wywozu-odpadow/",
      "syncVersion": "2026-06-18T14:46:28.358Z",
      "syncedAt": "2026-06-18T14:46:28.358Z"
    },
    {
      "id": "eko-30d0c5d27f45164d",
      "address": "Bociania 7",
      "district": "Kowale",
      "startDate": "2026-06-16",
      "endDate": "2026-06-18",
      "lat": 51.131885797,
      "lng": 17.099256992,
      "sourceMapUrl": "https://gabaryty.ekosystem.wroc.pl/?lat=51.131885797&lng=17.099256992&zoom=16&marker=135",
      "sourcePageUrl": "https://gabaryty.ekosystem.wroc.pl/tabela-wywozu-odpadow/",
      "syncVersion": "2026-06-18T14:46:28.358Z",
      "syncedAt": "2026-06-18T14:46:28.358Z"
    },
    {
      "id": "eko-65d85863c2a1bf28",
      "address": "Bolesława Krzywoustego 292",
      "district": "Psie Pole - Zawidawie",
      "startDate": "2026-06-16",
      "endDate": "2026-06-18",
      "lat": 51.145735159,
      "lng": 17.110961844,
      "sourceMapUrl": "https://gabaryty.ekosystem.wroc.pl/?lat=51.145735159&lng=17.110961844&zoom=16&marker=141",
      "sourcePageUrl": "https://gabaryty.ekosystem.wroc.pl/tabela-wywozu-odpadow/",
      "syncVersion": "2026-06-18T14:46:28.358Z",
      "syncedAt": "2026-06-18T14:46:28.358Z"
    },
    {
      "id": "eko-53414fb7238e4849",
      "address": "Bolesławiecka 1",
      "district": "Szczepin",
      "startDate": "2026-06-16",
      "endDate": "2026-06-18",
      "lat": 51.114898603,
      "lng": 17.001187596,
      "sourceMapUrl": "https://gabaryty.ekosystem.wroc.pl/?lat=51.114898603&lng=17.001187596&zoom=16&marker=150",
      "sourcePageUrl": "https://gabaryty.ekosystem.wroc.pl/tabela-wywozu-odpadow/",
      "syncVersion": "2026-06-18T14:46:28.358Z",
      "syncedAt": "2026-06-18T14:46:28.358Z"
    },
    {
      "id": "eko-735ba494a10e081b",
      "address": "Broniewskiego 9",
      "district": "Karłowice - Różanka",
      "startDate": "2026-06-16",
      "endDate": "2026-06-18",
      "lat": 51.136327394,
      "lng": 17.033941844,
      "sourceMapUrl": "https://gabaryty.ekosystem.wroc.pl/?lat=51.136327394&lng=17.033941844&zoom=16&marker=176",
      "sourcePageUrl": "https://gabaryty.ekosystem.wroc.pl/tabela-wywozu-odpadow/",
      "syncVersion": "2026-06-18T14:46:28.358Z",
      "syncedAt": "2026-06-18T14:46:28.358Z"
    },
    {
      "id": "eko-3ba48895d6c40149",
      "address": "Brzeska 16",
      "district": "Przedmieście Oławskie",
      "startDate": "2026-06-16",
      "endDate": "2026-06-18",
      "lat": 51.096753218,
      "lng": 17.052834885,
      "sourceMapUrl": "https://gabaryty.ekosystem.wroc.pl/?lat=51.096753218&lng=17.052834885&zoom=16&marker=2060",
      "sourcePageUrl": "https://gabaryty.ekosystem.wroc.pl/tabela-wywozu-odpadow/",
      "syncVersion": "2026-06-18T14:46:28.358Z",
      "syncedAt": "2026-06-18T14:46:28.358Z"
    },
    {
      "id": "eko-02b68ac357cb1d6e",
      "address": "Canaletta 2a",
      "district": "Biskupin - Sępolno - Dąbie - Bartoszowice",
      "startDate": "2026-06-16",
      "endDate": "2026-06-18",
      "lat": 51.104292952,
      "lng": 17.114526422,
      "sourceMapUrl": "https://gabaryty.ekosystem.wroc.pl/?lat=51.104292952&lng=17.114526422&zoom=16&marker=214",
      "sourcePageUrl": "https://gabaryty.ekosystem.wroc.pl/tabela-wywozu-odpadow/",
      "syncVersion": "2026-06-18T14:46:28.358Z",
      "syncedAt": "2026-06-18T14:46:28.358Z"
    },
    {
      "id": "eko-6d064f4a4577ff28",
      "address": "Chrzanowskiego 41",
      "district": "Karłowice - Różanka",
      "startDate": "2026-06-16",
      "endDate": "2026-06-18",
      "lat": 51.143104025,
      "lng": 17.050184562,
      "sourceMapUrl": "https://gabaryty.ekosystem.wroc.pl/?lat=51.143104025&lng=17.050184562&zoom=16&marker=238",
      "sourcePageUrl": "https://gabaryty.ekosystem.wroc.pl/tabela-wywozu-odpadow/",
      "syncVersion": "2026-06-18T14:46:28.358Z",
      "syncedAt": "2026-06-18T14:46:28.358Z"
    },
    {
      "id": "eko-0ca497f04b542653",
      "address": "Chudoby 18",
      "district": "Przedmieście Oławskie",
      "startDate": "2026-06-16",
      "endDate": "2026-06-18",
      "lat": 51.096244686,
      "lng": 17.054059253,
      "sourceMapUrl": "https://gabaryty.ekosystem.wroc.pl/?lat=51.096244686&lng=17.054059253&zoom=16&marker=240",
      "sourcePageUrl": "https://gabaryty.ekosystem.wroc.pl/tabela-wywozu-odpadow/",
      "syncVersion": "2026-06-18T14:46:28.358Z",
      "syncedAt": "2026-06-18T14:46:28.358Z"
    },
    {
      "id": "eko-d4a32a2184777a31",
      "address": "Czajkowskiego 63",
      "district": "Karłowice - Różanka",
      "startDate": "2026-06-16",
      "endDate": "2026-06-18",
      "lat": 51.139664935,
      "lng": 17.064536227,
      "sourceMapUrl": "https://gabaryty.ekosystem.wroc.pl/?lat=51.139664935&lng=17.064536227&zoom=16&marker=2070",
      "sourcePageUrl": "https://gabaryty.ekosystem.wroc.pl/tabela-wywozu-odpadow/",
      "syncVersion": "2026-06-18T14:46:28.358Z",
      "syncedAt": "2026-06-18T14:46:28.358Z"
    },
    {
      "id": "eko-7cbd4ee3f15aca40",
      "address": "Czarnieckiego 5",
      "district": "Szczepin",
      "startDate": "2026-06-16",
      "endDate": "2026-06-18",
      "lat": 51.115584991,
      "lng": 17.011350684,
      "sourceMapUrl": "https://gabaryty.ekosystem.wroc.pl/?lat=51.115584991&lng=17.011350684&zoom=16&marker=277",
      "sourcePageUrl": "https://gabaryty.ekosystem.wroc.pl/tabela-wywozu-odpadow/",
      "syncVersion": "2026-06-18T14:46:28.358Z",
      "syncedAt": "2026-06-18T14:46:28.358Z"
    },
    {
      "id": "eko-190cb205e7e67291",
      "address": "Czartoryskiego 30",
      "district": "Polanowice - Poświętne - Ligota",
      "startDate": "2026-06-16",
      "endDate": "2026-06-18",
      "lat": 51.152783577655,
      "lng": 17.047292693024,
      "sourceMapUrl": "https://gabaryty.ekosystem.wroc.pl/?lat=51.152783577655&lng=17.047292693024&zoom=16&marker=283",
      "sourcePageUrl": "https://gabaryty.ekosystem.wroc.pl/tabela-wywozu-odpadow/",
      "syncVersion": "2026-06-18T14:46:28.358Z",
      "syncedAt": "2026-06-18T14:46:28.358Z"
    },
    {
      "id": "eko-65400cb66210098f",
      "address": "Czytankowa 12",
      "district": "Sołtysowice",
      "startDate": "2026-06-16",
      "endDate": "2026-06-18",
      "lat": 51.151629756,
      "lng": 17.067960536,
      "sourceMapUrl": "https://gabaryty.ekosystem.wroc.pl/?lat=51.151629756&lng=17.067960536&zoom=16&marker=294",
      "sourcePageUrl": "https://gabaryty.ekosystem.wroc.pl/tabela-wywozu-odpadow/",
      "syncVersion": "2026-06-18T14:46:28.358Z",
      "syncedAt": "2026-06-18T14:46:28.358Z"
    },
    {
      "id": "eko-a49eec4d96b863d5",
      "address": "Dokerska 11",
      "district": "Pilczyce - Kozanów - Popowice Płn.",
      "startDate": "2026-06-16",
      "endDate": "2026-06-18",
      "lat": 51.141184319,
      "lng": 16.964941378,
      "sourceMapUrl": "https://gabaryty.ekosystem.wroc.pl/?lat=51.141184319&lng=16.964941378&zoom=16&marker=309",
      "sourcePageUrl": "https://gabaryty.ekosystem.wroc.pl/tabela-wywozu-odpadow/",
      "syncVersion": "2026-06-18T14:46:28.358Z",
      "syncedAt": "2026-06-18T14:46:28.358Z"
    },
    {
      "id": "eko-1868020e0d27b320",
      "address": "Drukarska 17",
      "district": "Powstańców Śląskich",
      "startDate": "2026-06-16",
      "endDate": "2026-06-18",
      "lat": 51.091363896,
      "lng": 17.020373341,
      "sourceMapUrl": "https://gabaryty.ekosystem.wroc.pl/?lat=51.091363896&lng=17.020373341&zoom=16&marker=335",
      "sourcePageUrl": "https://gabaryty.ekosystem.wroc.pl/tabela-wywozu-odpadow/",
      "syncVersion": "2026-06-18T14:46:28.358Z",
      "syncedAt": "2026-06-18T14:46:28.358Z"
    },
    {
      "id": "eko-5865806f2277bbe2",
      "address": "Działkowa 20",
      "district": "Gaj",
      "startDate": "2026-06-16",
      "endDate": "2026-06-18",
      "lat": 51.078242848,
      "lng": 17.036667342,
      "sourceMapUrl": "https://gabaryty.ekosystem.wroc.pl/?lat=51.078242848&lng=17.036667342&zoom=16&marker=346",
      "sourcePageUrl": "https://gabaryty.ekosystem.wroc.pl/tabela-wywozu-odpadow/",
      "syncVersion": "2026-06-18T14:46:28.358Z",
      "syncedAt": "2026-06-18T14:46:28.358Z"
    },
    {
      "id": "eko-856b4bd604bb54b1",
      "address": "Dźwirzyńska 32",
      "district": "Kuźniki",
      "startDate": "2026-06-16",
      "endDate": "2026-06-18",
      "lat": 51.128537955,
      "lng": 16.948196616,
      "sourceMapUrl": "https://gabaryty.ekosystem.wroc.pl/?lat=51.128537955&lng=16.948196616&zoom=16&marker=360",
      "sourcePageUrl": "https://gabaryty.ekosystem.wroc.pl/tabela-wywozu-odpadow/",
      "syncVersion": "2026-06-18T14:46:28.358Z",
      "syncedAt": "2026-06-18T14:46:28.358Z"
    },
    {
      "id": "eko-416e625538dea3d8",
      "address": "Fiołkowa 32",
      "district": "Grabiszyn - Grabiszynek",
      "startDate": "2026-06-16",
      "endDate": "2026-06-18",
      "lat": 51.092747608,
      "lng": 16.975291576,
      "sourceMapUrl": "https://gabaryty.ekosystem.wroc.pl/?lat=51.092747608&lng=16.975291576&zoom=16&marker=375",
      "sourcePageUrl": "https://gabaryty.ekosystem.wroc.pl/tabela-wywozu-odpadow/",
      "syncVersion": "2026-06-18T14:46:28.358Z",
      "syncedAt": "2026-06-18T14:46:28.358Z"
    },
    {
      "id": "eko-b692642b7cdce59f",
      "address": "Franki 9",
      "district": "Psie Pole - Zawidawie",
      "startDate": "2026-06-16",
      "endDate": "2026-06-18",
      "lat": 51.139522288,
      "lng": 17.125824426,
      "sourceMapUrl": "https://gabaryty.ekosystem.wroc.pl/?lat=51.139522288&lng=17.125824426&zoom=16&marker=379",
      "sourcePageUrl": "https://gabaryty.ekosystem.wroc.pl/tabela-wywozu-odpadow/",
      "syncVersion": "2026-06-18T14:46:28.358Z",
      "syncedAt": "2026-06-18T14:46:28.358Z"
    },
    {
      "id": "eko-500b44a20625c79a",
      "address": "Gajowicka 135",
      "district": "Gajowice",
      "startDate": "2026-06-16",
      "endDate": "2026-06-18",
      "lat": 51.091949259,
      "lng": 17.007685085,
      "sourceMapUrl": "https://gabaryty.ekosystem.wroc.pl/?lat=51.091949259&lng=17.007685085&zoom=16&marker=393",
      "sourcePageUrl": "https://gabaryty.ekosystem.wroc.pl/tabela-wywozu-odpadow/",
      "syncVersion": "2026-06-18T14:46:28.358Z",
      "syncedAt": "2026-06-18T14:46:28.358Z"
    },
    {
      "id": "eko-bd19391e0f9e5142",
      "address": "Gajowicka 145",
      "district": "Gajowice",
      "startDate": "2026-06-16",
      "endDate": "2026-06-18",
      "lat": 51.090329502,
      "lng": 17.007203932,
      "sourceMapUrl": "https://gabaryty.ekosystem.wroc.pl/?lat=51.090329502&lng=17.007203932&zoom=16&marker=395",
      "sourcePageUrl": "https://gabaryty.ekosystem.wroc.pl/tabela-wywozu-odpadow/",
      "syncVersion": "2026-06-18T14:46:28.358Z",
      "syncedAt": "2026-06-18T14:46:28.358Z"
    },
    {
      "id": "eko-0a50e1257415bf0a",
      "address": "gen. Grota-Roweckiego 65",
      "district": "Wojszyce",
      "startDate": "2026-06-16",
      "endDate": "2026-06-18",
      "lat": 51.063733874,
      "lng": 17.031745287,
      "sourceMapUrl": "https://gabaryty.ekosystem.wroc.pl/?lat=51.063733874&lng=17.031745287&zoom=16&marker=413",
      "sourcePageUrl": "https://gabaryty.ekosystem.wroc.pl/tabela-wywozu-odpadow/",
      "syncVersion": "2026-06-18T14:46:28.358Z",
      "syncedAt": "2026-06-18T14:46:28.358Z"
    },
    {
      "id": "eko-f22fd22e7fe22b00",
      "address": "gen. Haukego-Bosaka 25a",
      "district": "Przedmieście Oławskie",
      "startDate": "2026-06-16",
      "endDate": "2026-06-18",
      "lat": 51.104425644,
      "lng": 17.046354755,
      "sourceMapUrl": "https://gabaryty.ekosystem.wroc.pl/?lat=51.104425644&lng=17.046354755&zoom=16&marker=416",
      "sourcePageUrl": "https://gabaryty.ekosystem.wroc.pl/tabela-wywozu-odpadow/",
      "syncVersion": "2026-06-18T14:46:28.358Z",
      "syncedAt": "2026-06-18T14:46:28.358Z"
    },
    {
      "id": "eko-45d371e72cf6ba79",
      "address": "gen. Kniaziewicza 32-34",
      "district": "Przedmieście Oławskie",
      "startDate": "2026-06-16",
      "endDate": "2026-06-18",
      "lat": 51.101331461,
      "lng": 17.044634684,
      "sourceMapUrl": "https://gabaryty.ekosystem.wroc.pl/?lat=51.101331461&lng=17.044634684&zoom=16&marker=421",
      "sourcePageUrl": "https://gabaryty.ekosystem.wroc.pl/tabela-wywozu-odpadow/",
      "syncVersion": "2026-06-18T14:46:28.358Z",
      "syncedAt": "2026-06-18T14:46:28.358Z"
    },
    {
      "id": "eko-abbfc56d4dba55ea",
      "address": "gen. Prądzyńskiego 35",
      "district": "Przedmieście Oławskie",
      "startDate": "2026-06-16",
      "endDate": "2026-06-18",
      "lat": 51.098869968,
      "lng": 17.049201862,
      "sourceMapUrl": "https://gabaryty.ekosystem.wroc.pl/?lat=51.098869968&lng=17.049201862&zoom=16&marker=436",
      "sourcePageUrl": "https://gabaryty.ekosystem.wroc.pl/tabela-wywozu-odpadow/",
      "syncVersion": "2026-06-18T14:46:28.358Z",
      "syncedAt": "2026-06-18T14:46:28.358Z"
    },
    {
      "id": "eko-00efa55e22c3ec68",
      "address": "gen. Prądzyńskiego 47",
      "district": "Przedmieście Oławskie",
      "startDate": "2026-06-16",
      "endDate": "2026-06-18",
      "lat": 51.098089113,
      "lng": 17.048660169,
      "sourceMapUrl": "https://gabaryty.ekosystem.wroc.pl/?lat=51.098089113&lng=17.048660169&zoom=16&marker=439",
      "sourcePageUrl": "https://gabaryty.ekosystem.wroc.pl/tabela-wywozu-odpadow/",
      "syncVersion": "2026-06-18T14:46:28.358Z",
      "syncedAt": "2026-06-18T14:46:28.358Z"
    },
    {
      "id": "eko-bd9153f124901ef2",
      "address": "gen. Traugutta 137",
      "district": "Przedmieście Oławskie",
      "startDate": "2026-06-16",
      "endDate": "2026-06-18",
      "lat": 51.098288378,
      "lng": 17.055524875,
      "sourceMapUrl": "https://gabaryty.ekosystem.wroc.pl/?lat=51.098288378&lng=17.055524875&zoom=16&marker=449",
      "sourcePageUrl": "https://gabaryty.ekosystem.wroc.pl/tabela-wywozu-odpadow/",
      "syncVersion": "2026-06-18T14:46:28.358Z",
      "syncedAt": "2026-06-18T14:46:28.358Z"
    },
    {
      "id": "eko-0163a11c3faa9ed0",
      "address": "gen. Traugutta 141",
      "district": "Przedmieście Oławskie",
      "startDate": "2026-06-16",
      "endDate": "2026-06-18",
      "lat": 51.097955496,
      "lng": 17.055644818,
      "sourceMapUrl": "https://gabaryty.ekosystem.wroc.pl/?lat=51.097955496&lng=17.055644818&zoom=16&marker=450",
      "sourcePageUrl": "https://gabaryty.ekosystem.wroc.pl/tabela-wywozu-odpadow/",
      "syncVersion": "2026-06-18T14:46:28.358Z",
      "syncedAt": "2026-06-18T14:46:28.358Z"
    },
    {
      "id": "eko-a6896e20efe47ee3",
      "address": "gen. Traugutta 80",
      "district": "Przedmieście Oławskie",
      "startDate": "2026-06-16",
      "endDate": "2026-06-18",
      "lat": 51.102553318,
      "lng": 17.051655935,
      "sourceMapUrl": "https://gabaryty.ekosystem.wroc.pl/?lat=51.102553318&lng=17.051655935&zoom=16&marker=455",
      "sourcePageUrl": "https://gabaryty.ekosystem.wroc.pl/tabela-wywozu-odpadow/",
      "syncVersion": "2026-06-18T14:46:28.358Z",
      "syncedAt": "2026-06-18T14:46:28.358Z"
    },
    {
      "id": "eko-5a61ac6a6b7613d3",
      "address": "Gliniana 99",
      "district": "Huby",
      "startDate": "2026-06-16",
      "endDate": "2026-06-18",
      "lat": 51.090881489,
      "lng": 17.043645049,
      "sourceMapUrl": "https://gabaryty.ekosystem.wroc.pl/?lat=51.090881489&lng=17.043645049&zoom=16&marker=476",
      "sourcePageUrl": "https://gabaryty.ekosystem.wroc.pl/tabela-wywozu-odpadow/",
      "syncVersion": "2026-06-18T14:46:28.358Z",
      "syncedAt": "2026-06-18T14:46:28.358Z"
    },
    {
      "id": "eko-a4a9ec297627507b",
      "address": "Grabiszyńska 106",
      "district": "Gajowice",
      "startDate": "2026-06-16",
      "endDate": "2026-06-18",
      "lat": 51.100120764,
      "lng": 17.005555392,
      "sourceMapUrl": "https://gabaryty.ekosystem.wroc.pl/?lat=51.100120764&lng=17.005555392&zoom=16&marker=506",
      "sourcePageUrl": "https://gabaryty.ekosystem.wroc.pl/tabela-wywozu-odpadow/",
      "syncVersion": "2026-06-18T14:46:28.358Z",
      "syncedAt": "2026-06-18T14:46:28.358Z"
    },
    {
      "id": "eko-d5e848824e5c12c2",
      "address": "Hubska 123",
      "district": "Huby",
      "startDate": "2026-06-16",
      "endDate": "2026-06-18",
      "lat": 51.086724056,
      "lng": 17.04582536,
      "sourceMapUrl": "https://gabaryty.ekosystem.wroc.pl/?lat=51.086724056&lng=17.04582536&zoom=16&marker=573",
      "sourcePageUrl": "https://gabaryty.ekosystem.wroc.pl/tabela-wywozu-odpadow/",
      "syncVersion": "2026-06-18T14:46:28.358Z",
      "syncedAt": "2026-06-18T14:46:28.358Z"
    },
    {
      "id": "eko-c7dc5e8e3bdd4eb1",
      "address": "Hubska 60",
      "district": "Huby",
      "startDate": "2026-06-16",
      "endDate": "2026-06-18",
      "lat": 51.091529895,
      "lng": 17.045529728,
      "sourceMapUrl": "https://gabaryty.ekosystem.wroc.pl/?lat=51.091529895&lng=17.045529728&zoom=16&marker=578",
      "sourcePageUrl": "https://gabaryty.ekosystem.wroc.pl/tabela-wywozu-odpadow/",
      "syncVersion": "2026-06-18T14:46:28.358Z",
      "syncedAt": "2026-06-18T14:46:28.358Z"
    },
    {
      "id": "eko-21528ec79ab07ddb",
      "address": "Inżynierska 20",
      "district": "Grabiszyn - Grabiszynek",
      "startDate": "2026-06-16",
      "endDate": "2026-06-18",
      "lat": 51.094435021,
      "lng": 16.991924353,
      "sourceMapUrl": "https://gabaryty.ekosystem.wroc.pl/?lat=51.094435021&lng=16.991924353&zoom=16&marker=600",
      "sourcePageUrl": "https://gabaryty.ekosystem.wroc.pl/tabela-wywozu-odpadow/",
      "syncVersion": "2026-06-18T14:46:28.358Z",
      "syncedAt": "2026-06-18T14:46:28.358Z"
    },
    {
      "id": "eko-571092ce5cfb1aef",
      "address": "Inżynierska 62",
      "district": "Grabiszyn - Grabiszynek",
      "startDate": "2026-06-16",
      "endDate": "2026-06-18",
      "lat": 51.093107077,
      "lng": 16.984477875,
      "sourceMapUrl": "https://gabaryty.ekosystem.wroc.pl/?lat=51.093107077&lng=16.984477875&zoom=16&marker=604",
      "sourcePageUrl": "https://gabaryty.ekosystem.wroc.pl/tabela-wywozu-odpadow/",
      "syncVersion": "2026-06-18T14:46:28.358Z",
      "syncedAt": "2026-06-18T14:46:28.358Z"
    },
    {
      "id": "eko-fea7e69574fa5175",
      "address": "Iwaszkiewicza 1",
      "district": "Wojszyce",
      "startDate": "2026-06-16",
      "endDate": "2026-06-18",
      "lat": 51.056901918,
      "lng": 17.032973564,
      "sourceMapUrl": "https://gabaryty.ekosystem.wroc.pl/?lat=51.056901918&lng=17.032973564&zoom=16&marker=605",
      "sourcePageUrl": "https://gabaryty.ekosystem.wroc.pl/tabela-wywozu-odpadow/",
      "syncVersion": "2026-06-18T14:46:28.358Z",
      "syncedAt": "2026-06-18T14:46:28.358Z"
    },
    {
      "id": "eko-678e2981139d9eb2",
      "address": "Jarocińska 32",
      "district": "Osobowice - Rędzin",
      "startDate": "2026-06-16",
      "endDate": "2026-06-18",
      "lat": 51.1429132,
      "lng": 16.993755999,
      "sourceMapUrl": "https://gabaryty.ekosystem.wroc.pl/?lat=51.1429132&lng=16.993755999&zoom=16&marker=2100",
      "sourcePageUrl": "https://gabaryty.ekosystem.wroc.pl/tabela-wywozu-odpadow/",
      "syncVersion": "2026-06-18T14:46:28.358Z",
      "syncedAt": "2026-06-18T14:46:28.358Z"
    },
    {
      "id": "eko-d9ee70e8650a6844",
      "address": "Kielecka 66",
      "district": "Leśnica",
      "startDate": "2026-06-16",
      "endDate": "2026-06-18",
      "lat": 51.132931256,
      "lng": 16.885069888,
      "sourceMapUrl": "https://gabaryty.ekosystem.wroc.pl/?lat=51.132931256&lng=16.885069888&zoom=16&marker=706",
      "sourcePageUrl": "https://gabaryty.ekosystem.wroc.pl/tabela-wywozu-odpadow/",
      "syncVersion": "2026-06-18T14:46:28.358Z",
      "syncedAt": "2026-06-18T14:46:28.358Z"
    },
    {
      "id": "eko-5080ccebda4abc47",
      "address": "Kokosowa 1",
      "district": "Leśnica",
      "startDate": "2026-06-16",
      "endDate": "2026-06-18",
      "lat": 51.155288347,
      "lng": 16.90270205,
      "sourceMapUrl": "https://gabaryty.ekosystem.wroc.pl/?lat=51.155288347&lng=16.90270205&zoom=16&marker=728",
      "sourcePageUrl": "https://gabaryty.ekosystem.wroc.pl/tabela-wywozu-odpadow/",
      "syncVersion": "2026-06-18T14:46:28.358Z",
      "syncedAt": "2026-06-18T14:46:28.358Z"
    },
    {
      "id": "eko-6e4f12f8a6a94174",
      "address": "Kołobrzeska 23",
      "district": "Kuźniki",
      "startDate": "2026-06-16",
      "endDate": "2026-06-18",
      "lat": 51.121699112,
      "lng": 16.946473727,
      "sourceMapUrl": "https://gabaryty.ekosystem.wroc.pl/?lat=51.121699112&lng=16.946473727&zoom=16&marker=814",
      "sourcePageUrl": "https://gabaryty.ekosystem.wroc.pl/tabela-wywozu-odpadow/",
      "syncVersion": "2026-06-18T14:46:28.358Z",
      "syncedAt": "2026-06-18T14:46:28.358Z"
    },
    {
      "id": "eko-c1c8dd7779ac66d7",
      "address": "Komandorska 53f",
      "district": "Powstańców Śląskich",
      "startDate": "2026-06-16",
      "endDate": "2026-06-18",
      "lat": 51.096863376,
      "lng": 17.027536033,
      "sourceMapUrl": "https://gabaryty.ekosystem.wroc.pl/?lat=51.096863376&lng=17.027536033&zoom=16&marker=740",
      "sourcePageUrl": "https://gabaryty.ekosystem.wroc.pl/tabela-wywozu-odpadow/",
      "syncVersion": "2026-06-18T14:46:28.358Z",
      "syncedAt": "2026-06-18T14:46:28.358Z"
    },
    {
      "id": "eko-65b2fe10007a43c9",
      "address": "Komandorska 54",
      "district": "Powstańców Śląskich",
      "startDate": "2026-06-16",
      "endDate": "2026-06-18",
      "lat": 51.096240705,
      "lng": 17.028831931,
      "sourceMapUrl": "https://gabaryty.ekosystem.wroc.pl/?lat=51.096240705&lng=17.028831931&zoom=16&marker=741",
      "sourcePageUrl": "https://gabaryty.ekosystem.wroc.pl/tabela-wywozu-odpadow/",
      "syncVersion": "2026-06-18T14:46:28.358Z",
      "syncedAt": "2026-06-18T14:46:28.358Z"
    },
    {
      "id": "eko-5f119a1884170377",
      "address": "Komandorska 76",
      "district": "Powstańców Śląskich",
      "startDate": "2026-06-16",
      "endDate": "2026-06-18",
      "lat": 51.093421696,
      "lng": 17.026699679,
      "sourceMapUrl": "https://gabaryty.ekosystem.wroc.pl/?lat=51.093421696&lng=17.026699679&zoom=16&marker=746",
      "sourcePageUrl": "https://gabaryty.ekosystem.wroc.pl/tabela-wywozu-odpadow/",
      "syncVersion": "2026-06-18T14:46:28.358Z",
      "syncedAt": "2026-06-18T14:46:28.358Z"
    },
    {
      "id": "eko-bbdcea4a64c33242",
      "address": "Korzeńska 22",
      "district": "Polanowice - Poświętne - Ligota",
      "startDate": "2026-06-16",
      "endDate": "2026-06-18",
      "lat": 51.152048238,
      "lng": 17.04184089,
      "sourceMapUrl": "https://gabaryty.ekosystem.wroc.pl/?lat=51.152048238&lng=17.04184089&zoom=16&marker=774",
      "sourcePageUrl": "https://gabaryty.ekosystem.wroc.pl/tabela-wywozu-odpadow/",
      "syncVersion": "2026-06-18T14:46:28.358Z",
      "syncedAt": "2026-06-18T14:46:28.358Z"
    },
    {
      "id": "eko-92e9c090326f03da",
      "address": "Kosynierów Gdyńskich 10",
      "district": "Biskupin - Sępolno - Dąbie - Bartoszowice",
      "startDate": "2026-06-16",
      "endDate": "2026-06-18",
      "lat": 51.110931471,
      "lng": 17.09314947,
      "sourceMapUrl": "https://gabaryty.ekosystem.wroc.pl/?lat=51.110931471&lng=17.09314947&zoom=16&marker=792",
      "sourcePageUrl": "https://gabaryty.ekosystem.wroc.pl/tabela-wywozu-odpadow/",
      "syncVersion": "2026-06-18T14:46:28.358Z",
      "syncedAt": "2026-06-18T14:46:28.358Z"
    },
    {
      "id": "eko-4ef1992948a2203a",
      "address": "Kościuszki 154",
      "district": "Przedmieście Oławskie",
      "startDate": "2026-06-16",
      "endDate": "2026-06-18",
      "lat": 51.099218065,
      "lng": 17.050070944,
      "sourceMapUrl": "https://gabaryty.ekosystem.wroc.pl/?lat=51.099218065&lng=17.050070944&zoom=16&marker=784",
      "sourcePageUrl": "https://gabaryty.ekosystem.wroc.pl/tabela-wywozu-odpadow/",
      "syncVersion": "2026-06-18T14:46:28.358Z",
      "syncedAt": "2026-06-18T14:46:28.358Z"
    },
    {
      "id": "eko-5a719b88f7691617",
      "address": "Krucza 138",
      "district": "Gajowice",
      "startDate": "2026-06-16",
      "endDate": "2026-06-18",
      "lat": 51.093655711,
      "lng": 16.9986476,
      "sourceMapUrl": "https://gabaryty.ekosystem.wroc.pl/?lat=51.093655711&lng=16.9986476&zoom=16&marker=838",
      "sourcePageUrl": "https://gabaryty.ekosystem.wroc.pl/tabela-wywozu-odpadow/",
      "syncVersion": "2026-06-18T14:46:28.358Z",
      "syncedAt": "2026-06-18T14:46:28.358Z"
    },
    {
      "id": "eko-c8f77c40896166b5",
      "address": "Kukuczki 18",
      "district": "Gaj",
      "startDate": "2026-06-16",
      "endDate": "2026-06-18",
      "lat": 51.072173204,
      "lng": 17.0367065,
      "sourceMapUrl": "https://gabaryty.ekosystem.wroc.pl/?lat=51.072173204&lng=17.0367065&zoom=16&marker=891",
      "sourcePageUrl": "https://gabaryty.ekosystem.wroc.pl/tabela-wywozu-odpadow/",
      "syncVersion": "2026-06-18T14:46:28.358Z",
      "syncedAt": "2026-06-18T14:46:28.358Z"
    },
    {
      "id": "eko-1202c5784badd79a",
      "address": "Kunickiego 10d",
      "district": "Muchobór Wielki",
      "startDate": "2026-06-16",
      "endDate": "2026-06-18",
      "lat": 51.096158521,
      "lng": 16.943817467,
      "sourceMapUrl": "https://gabaryty.ekosystem.wroc.pl/?lat=51.096158521&lng=16.943817467&zoom=16&marker=893",
      "sourcePageUrl": "https://gabaryty.ekosystem.wroc.pl/tabela-wywozu-odpadow/",
      "syncVersion": "2026-06-18T14:46:28.358Z",
      "syncedAt": "2026-06-18T14:46:28.358Z"
    },
    {
      "id": "eko-1272ecb581d90624",
      "address": "Litomska 19",
      "district": "Szczepin",
      "startDate": "2026-06-16",
      "endDate": "2026-06-18",
      "lat": 51.117321934,
      "lng": 17.010542769,
      "sourceMapUrl": "https://gabaryty.ekosystem.wroc.pl/?lat=51.117321934&lng=17.010542769&zoom=16&marker=933",
      "sourcePageUrl": "https://gabaryty.ekosystem.wroc.pl/tabela-wywozu-odpadow/",
      "syncVersion": "2026-06-18T14:46:28.358Z",
      "syncedAt": "2026-06-18T14:46:28.358Z"
    },
    {
      "id": "eko-f52a23db007a57ed",
      "address": "Lubińska 54",
      "district": "Szczepin",
      "startDate": "2026-06-16",
      "endDate": "2026-06-18",
      "lat": 51.119124472,
      "lng": 17.005821658,
      "sourceMapUrl": "https://gabaryty.ekosystem.wroc.pl/?lat=51.119124472&lng=17.005821658&zoom=16&marker=944",
      "sourcePageUrl": "https://gabaryty.ekosystem.wroc.pl/tabela-wywozu-odpadow/",
      "syncVersion": "2026-06-18T14:46:28.358Z",
      "syncedAt": "2026-06-18T14:46:28.358Z"
    },
    {
      "id": "eko-d39482cf6a338101",
      "address": "Lwowska 10",
      "district": "Gajowice",
      "startDate": "2026-06-16",
      "endDate": "2026-06-18",
      "lat": 51.099898462,
      "lng": 17.009301422,
      "sourceMapUrl": "https://gabaryty.ekosystem.wroc.pl/?lat=51.099898462&lng=17.009301422&zoom=16&marker=953",
      "sourcePageUrl": "https://gabaryty.ekosystem.wroc.pl/tabela-wywozu-odpadow/",
      "syncVersion": "2026-06-18T14:46:28.358Z",
      "syncedAt": "2026-06-18T14:46:28.358Z"
    },
    {
      "id": "eko-0d5e46a64b3e12e1",
      "address": "Manganowa 4",
      "district": "Gajowice",
      "startDate": "2026-06-16",
      "endDate": "2026-06-18",
      "lat": 51.102638702,
      "lng": 17.002416905,
      "sourceMapUrl": "https://gabaryty.ekosystem.wroc.pl/?lat=51.102638702&lng=17.002416905&zoom=16&marker=972",
      "sourcePageUrl": "https://gabaryty.ekosystem.wroc.pl/tabela-wywozu-odpadow/",
      "syncVersion": "2026-06-18T14:46:28.358Z",
      "syncedAt": "2026-06-18T14:46:28.358Z"
    },
    {
      "id": "eko-f9f667071042c859",
      "address": "Mielecka 20",
      "district": "Gajowice",
      "startDate": "2026-06-16",
      "endDate": "2026-06-18",
      "lat": 51.091331718,
      "lng": 17.002576332,
      "sourceMapUrl": "https://gabaryty.ekosystem.wroc.pl/?lat=51.091331718&lng=17.002576332&zoom=16&marker=1006",
      "sourcePageUrl": "https://gabaryty.ekosystem.wroc.pl/tabela-wywozu-odpadow/",
      "syncVersion": "2026-06-18T14:46:28.358Z",
      "syncedAt": "2026-06-18T14:46:28.358Z"
    },
    {
      "id": "eko-5016d305fd6b29d2",
      "address": "Mosiężna 23",
      "district": "Gajowice",
      "startDate": "2026-06-16",
      "endDate": "2026-06-18",
      "lat": 51.101432948,
      "lng": 16.998414957,
      "sourceMapUrl": "https://gabaryty.ekosystem.wroc.pl/?lat=51.101432948&lng=16.998414957&zoom=16&marker=1057",
      "sourcePageUrl": "https://gabaryty.ekosystem.wroc.pl/tabela-wywozu-odpadow/",
      "syncVersion": "2026-06-18T14:46:28.358Z",
      "syncedAt": "2026-06-18T14:46:28.358Z"
    },
    {
      "id": "eko-00defff557294e11",
      "address": "Na Końcu 2",
      "district": "Zacisze - Zalesie - Szczytniki",
      "startDate": "2026-06-16",
      "endDate": "2026-06-18",
      "lat": 51.126460648,
      "lng": 17.079313632,
      "sourceMapUrl": "https://gabaryty.ekosystem.wroc.pl/?lat=51.126460648&lng=17.079313632&zoom=16&marker=1070",
      "sourcePageUrl": "https://gabaryty.ekosystem.wroc.pl/tabela-wywozu-odpadow/",
      "syncVersion": "2026-06-18T14:46:28.358Z",
      "syncedAt": "2026-06-18T14:46:28.358Z"
    },
    {
      "id": "eko-066eddc0892e9ac7",
      "address": "Na Ostatnim Groszu 2",
      "district": "Gądów - Popowice Płd.",
      "startDate": "2026-06-16",
      "endDate": "2026-06-18",
      "lat": 51.12559554,
      "lng": 16.979987567,
      "sourceMapUrl": "https://gabaryty.ekosystem.wroc.pl/?lat=51.12559554&lng=16.979987567&zoom=16&marker=1072",
      "sourcePageUrl": "https://gabaryty.ekosystem.wroc.pl/tabela-wywozu-odpadow/",
      "syncVersion": "2026-06-18T14:46:28.358Z",
      "syncedAt": "2026-06-18T14:46:28.358Z"
    },
    {
      "id": "eko-e658deab9cf0020f",
      "address": "Odkrywców 1-3",
      "district": "Grabiszyn - Grabiszynek",
      "startDate": "2026-06-16",
      "endDate": "2026-06-18",
      "lat": 51.091238989,
      "lng": 16.985549595,
      "sourceMapUrl": "https://gabaryty.ekosystem.wroc.pl/?lat=51.091238989&lng=16.985549595&zoom=16&marker=1129",
      "sourcePageUrl": "https://gabaryty.ekosystem.wroc.pl/tabela-wywozu-odpadow/",
      "syncVersion": "2026-06-18T14:46:28.358Z",
      "syncedAt": "2026-06-18T14:46:28.358Z"
    },
    {
      "id": "eko-090de7b930524121",
      "address": "Oleska 17",
      "district": "Psie Pole - Zawidawie",
      "startDate": "2026-06-16",
      "endDate": "2026-06-18",
      "lat": 51.159486051,
      "lng": 17.13573419,
      "sourceMapUrl": "https://gabaryty.ekosystem.wroc.pl/?lat=51.159486051&lng=17.13573419&zoom=16&marker=1146",
      "sourcePageUrl": "https://gabaryty.ekosystem.wroc.pl/tabela-wywozu-odpadow/",
      "syncVersion": "2026-06-18T14:46:28.358Z",
      "syncedAt": "2026-06-18T14:46:28.358Z"
    },
    {
      "id": "eko-850f5cf8a0444704",
      "address": "Opolska 15",
      "district": "Księże",
      "startDate": "2026-06-16",
      "endDate": "2026-06-18",
      "lat": 51.079211036,
      "lng": 17.079347376,
      "sourceMapUrl": "https://gabaryty.ekosystem.wroc.pl/?lat=51.079211036&lng=17.079347376&zoom=16&marker=1171",
      "sourcePageUrl": "https://gabaryty.ekosystem.wroc.pl/tabela-wywozu-odpadow/",
      "syncVersion": "2026-06-18T14:46:28.358Z",
      "syncedAt": "2026-06-18T14:46:28.358Z"
    },
    {
      "id": "eko-c8afaedc96c76f2d",
      "address": "Opolska 47a",
      "district": "Księże",
      "startDate": "2026-06-16",
      "endDate": "2026-06-18",
      "lat": 51.078116669,
      "lng": 17.082477565,
      "sourceMapUrl": "https://gabaryty.ekosystem.wroc.pl/?lat=51.078116669&lng=17.082477565&zoom=16&marker=1173",
      "sourcePageUrl": "https://gabaryty.ekosystem.wroc.pl/tabela-wywozu-odpadow/",
      "syncVersion": "2026-06-18T14:46:28.358Z",
      "syncedAt": "2026-06-18T14:46:28.358Z"
    },
    {
      "id": "eko-68d85e0badf1a85e",
      "address": "Orkana 1",
      "district": "Karłowice - Różanka",
      "startDate": "2026-06-16",
      "endDate": "2026-06-18",
      "lat": 51.135274781,
      "lng": 17.050659159,
      "sourceMapUrl": "https://gabaryty.ekosystem.wroc.pl/?lat=51.135274781&lng=17.050659159&zoom=16&marker=1178",
      "sourcePageUrl": "https://gabaryty.ekosystem.wroc.pl/tabela-wywozu-odpadow/",
      "syncVersion": "2026-06-18T14:46:28.358Z",
      "syncedAt": "2026-06-18T14:46:28.358Z"
    },
    {
      "id": "eko-03ddec4341571d16",
      "address": "Orzechowa 91",
      "district": "Gaj",
      "startDate": "2026-06-16",
      "endDate": "2026-06-18",
      "lat": 51.078216983,
      "lng": 17.043847994,
      "sourceMapUrl": "https://gabaryty.ekosystem.wroc.pl/?lat=51.078216983&lng=17.043847994&zoom=16&marker=1193",
      "sourcePageUrl": "https://gabaryty.ekosystem.wroc.pl/tabela-wywozu-odpadow/",
      "syncVersion": "2026-06-18T14:46:28.358Z",
      "syncedAt": "2026-06-18T14:46:28.358Z"
    },
    {
      "id": "eko-da90f43fe17dfdbe",
      "address": "Osobowicka 112d",
      "district": "Osobowice - Rędzin",
      "startDate": "2026-06-16",
      "endDate": "2026-06-18",
      "lat": 51.140955542,
      "lng": 16.989986457,
      "sourceMapUrl": "https://gabaryty.ekosystem.wroc.pl/?lat=51.140955542&lng=16.989986457&zoom=16&marker=1200",
      "sourcePageUrl": "https://gabaryty.ekosystem.wroc.pl/tabela-wywozu-odpadow/",
      "syncVersion": "2026-06-18T14:46:28.358Z",
      "syncedAt": "2026-06-18T14:46:28.358Z"
    },
    {
      "id": "eko-0ba6e153346bcf7f",
      "address": "Parkowa 42",
      "district": "Zacisze - Zalesie - Szczytniki",
      "startDate": "2026-06-16",
      "endDate": "2026-06-18",
      "lat": 51.114019169,
      "lng": 17.073187593,
      "sourceMapUrl": "https://gabaryty.ekosystem.wroc.pl/?lat=51.114019169&lng=17.073187593&zoom=16&marker=1221",
      "sourcePageUrl": "https://gabaryty.ekosystem.wroc.pl/tabela-wywozu-odpadow/",
      "syncVersion": "2026-06-18T14:46:28.358Z",
      "syncedAt": "2026-06-18T14:46:28.358Z"
    },
    {
      "id": "eko-6e8f88e8324f4591",
      "address": "Parnickiego 7",
      "district": "Karłowice - Różanka",
      "startDate": "2026-06-16",
      "endDate": "2026-06-18",
      "lat": 51.138759352,
      "lng": 17.029756053,
      "sourceMapUrl": "https://gabaryty.ekosystem.wroc.pl/?lat=51.138759352&lng=17.029756053&zoom=16&marker=1226",
      "sourcePageUrl": "https://gabaryty.ekosystem.wroc.pl/tabela-wywozu-odpadow/",
      "syncVersion": "2026-06-18T14:46:28.358Z",
      "syncedAt": "2026-06-18T14:46:28.358Z"
    },
    {
      "id": "eko-02bbb25cb9cb53a2",
      "address": "Pautscha 4",
      "district": "Biskupin - Sępolno - Dąbie - Bartoszowice",
      "startDate": "2026-06-16",
      "endDate": "2026-06-18",
      "lat": 51.101740149,
      "lng": 17.100673072,
      "sourceMapUrl": "https://gabaryty.ekosystem.wroc.pl/?lat=51.101740149&lng=17.100673072&zoom=16&marker=1236",
      "sourcePageUrl": "https://gabaryty.ekosystem.wroc.pl/tabela-wywozu-odpadow/",
      "syncVersion": "2026-06-18T14:46:28.358Z",
      "syncedAt": "2026-06-18T14:46:28.358Z"
    },
    {
      "id": "eko-1a64a7b7287c1ca5",
      "address": "Pereca 15a",
      "district": "Gajowice",
      "startDate": "2026-06-16",
      "endDate": "2026-06-18",
      "lat": 51.099813089,
      "lng": 17.006974656,
      "sourceMapUrl": "https://gabaryty.ekosystem.wroc.pl/?lat=51.099813089&lng=17.006974656&zoom=16&marker=1242",
      "sourcePageUrl": "https://gabaryty.ekosystem.wroc.pl/tabela-wywozu-odpadow/",
      "syncVersion": "2026-06-18T14:46:28.358Z",
      "syncedAt": "2026-06-18T14:46:28.358Z"
    },
    {
      "id": "eko-c52f46ae2b1f7a97",
      "address": "Pierwszej Dywizji 1",
      "district": "Biskupin - Sępolno - Dąbie - Bartoszowice",
      "startDate": "2026-06-16",
      "endDate": "2026-06-18",
      "lat": 51.108601976,
      "lng": 17.102564563,
      "sourceMapUrl": "https://gabaryty.ekosystem.wroc.pl/?lat=51.108601976&lng=17.102564563&zoom=16&marker=1266",
      "sourcePageUrl": "https://gabaryty.ekosystem.wroc.pl/tabela-wywozu-odpadow/",
      "syncVersion": "2026-06-18T14:46:28.358Z",
      "syncedAt": "2026-06-18T14:46:28.358Z"
    },
    {
      "id": "eko-92eb8eeebd8bb64e",
      "address": "Piławska 8",
      "district": "Gaj",
      "startDate": "2026-06-16",
      "endDate": "2026-06-18",
      "lat": 51.075844348,
      "lng": 17.043921599,
      "sourceMapUrl": "https://gabaryty.ekosystem.wroc.pl/?lat=51.075844348&lng=17.043921599&zoom=16&marker=1282",
      "sourcePageUrl": "https://gabaryty.ekosystem.wroc.pl/tabela-wywozu-odpadow/",
      "syncVersion": "2026-06-18T14:46:28.358Z",
      "syncedAt": "2026-06-18T14:46:28.358Z"
    },
    {
      "id": "eko-8618775cb61a5eda",
      "address": "pl. Daniłowskiego 2",
      "district": "Karłowice - Różanka",
      "startDate": "2026-06-16",
      "endDate": "2026-06-18",
      "lat": 51.137959461,
      "lng": 17.06026664,
      "sourceMapUrl": "https://gabaryty.ekosystem.wroc.pl/?lat=51.137959461&lng=17.06026664&zoom=16&marker=1285",
      "sourcePageUrl": "https://gabaryty.ekosystem.wroc.pl/tabela-wywozu-odpadow/",
      "syncVersion": "2026-06-18T14:46:28.358Z",
      "syncedAt": "2026-06-18T14:46:28.358Z"
    },
    {
      "id": "eko-e3c9693c52ba079b",
      "address": "Polarna 5",
      "district": "Krzyki - Partynice",
      "startDate": "2026-06-16",
      "endDate": "2026-06-18",
      "lat": 51.069337495,
      "lng": 17.001966467,
      "sourceMapUrl": "https://gabaryty.ekosystem.wroc.pl/?lat=51.069337495&lng=17.001966467&zoom=16&marker=1301",
      "sourcePageUrl": "https://gabaryty.ekosystem.wroc.pl/tabela-wywozu-odpadow/",
      "syncVersion": "2026-06-18T14:46:28.358Z",
      "syncedAt": "2026-06-18T14:46:28.358Z"
    },
    {
      "id": "eko-9dc0aefa21edeb9f",
      "address": "Poranna 37",
      "district": "Krzyki - Partynice",
      "startDate": "2026-06-16",
      "endDate": "2026-06-18",
      "lat": 51.07165098,
      "lng": 16.991700193,
      "sourceMapUrl": "https://gabaryty.ekosystem.wroc.pl/?lat=51.07165098&lng=16.991700193&zoom=16&marker=1313",
      "sourcePageUrl": "https://gabaryty.ekosystem.wroc.pl/tabela-wywozu-odpadow/",
      "syncVersion": "2026-06-18T14:46:28.358Z",
      "syncedAt": "2026-06-18T14:46:28.358Z"
    },
    {
      "id": "eko-3b74cde4bec75a38",
      "address": "Powiewna 7",
      "district": "Krzyki - Partynice",
      "startDate": "2026-06-16",
      "endDate": "2026-06-18",
      "lat": 51.075871832,
      "lng": 16.994429327,
      "sourceMapUrl": "https://gabaryty.ekosystem.wroc.pl/?lat=51.075871832&lng=16.994429327&zoom=16&marker=1324",
      "sourcePageUrl": "https://gabaryty.ekosystem.wroc.pl/tabela-wywozu-odpadow/",
      "syncVersion": "2026-06-18T14:46:28.358Z",
      "syncedAt": "2026-06-18T14:46:28.358Z"
    },
    {
      "id": "eko-c2e4d800ca347f1a",
      "address": "Powstańców Śląskich 112",
      "district": "Powstańców Śląskich",
      "startDate": "2026-06-16",
      "endDate": "2026-06-18",
      "lat": 51.092819406,
      "lng": 17.02038961,
      "sourceMapUrl": "https://gabaryty.ekosystem.wroc.pl/?lat=51.092819406&lng=17.02038961&zoom=16&marker=1325",
      "sourcePageUrl": "https://gabaryty.ekosystem.wroc.pl/tabela-wywozu-odpadow/",
      "syncVersion": "2026-06-18T14:46:28.358Z",
      "syncedAt": "2026-06-18T14:46:28.358Z"
    },
    {
      "id": "eko-90808fcf1ecc3d79",
      "address": "Powstańców Śląskich 162",
      "district": "Borek",
      "startDate": "2026-06-16",
      "endDate": "2026-06-18",
      "lat": 51.085111937,
      "lng": 17.011770587,
      "sourceMapUrl": "https://gabaryty.ekosystem.wroc.pl/?lat=51.085111937&lng=17.011770587&zoom=16&marker=1329",
      "sourcePageUrl": "https://gabaryty.ekosystem.wroc.pl/tabela-wywozu-odpadow/",
      "syncVersion": "2026-06-18T14:46:28.358Z",
      "syncedAt": "2026-06-18T14:46:28.358Z"
    },
    {
      "id": "eko-a47d4d93da7c992e",
      "address": "Rawska 2",
      "district": "Borek",
      "startDate": "2026-06-16",
      "endDate": "2026-06-18",
      "lat": 51.07938834,
      "lng": 17.017255523,
      "sourceMapUrl": "https://gabaryty.ekosystem.wroc.pl/?lat=51.07938834&lng=17.017255523&zoom=16&marker=1414",
      "sourcePageUrl": "https://gabaryty.ekosystem.wroc.pl/tabela-wywozu-odpadow/",
      "syncVersion": "2026-06-18T14:46:28.358Z",
      "syncedAt": "2026-06-18T14:46:28.358Z"
    },
    {
      "id": "eko-0c5edbc8eb816db1",
      "address": "Rodziewiczówny 8",
      "district": "Muchobór Wielki",
      "startDate": "2026-06-16",
      "endDate": "2026-06-18",
      "lat": 51.10140496,
      "lng": 16.947256661,
      "sourceMapUrl": "https://gabaryty.ekosystem.wroc.pl/?lat=51.10140496&lng=16.947256661&zoom=16&marker=1430",
      "sourcePageUrl": "https://gabaryty.ekosystem.wroc.pl/tabela-wywozu-odpadow/",
      "syncVersion": "2026-06-18T14:46:28.358Z",
      "syncedAt": "2026-06-18T14:46:28.358Z"
    },
    {
      "id": "eko-b973a11b66773279",
      "address": "Romanowskiego 18",
      "district": "Karłowice - Różanka",
      "startDate": "2026-06-16",
      "endDate": "2026-06-18",
      "lat": 51.140931025,
      "lng": 17.036911348,
      "sourceMapUrl": "https://gabaryty.ekosystem.wroc.pl/?lat=51.140931025&lng=17.036911348&zoom=16&marker=1438",
      "sourcePageUrl": "https://gabaryty.ekosystem.wroc.pl/tabela-wywozu-odpadow/",
      "syncVersion": "2026-06-18T14:46:28.358Z",
      "syncedAt": "2026-06-18T14:46:28.358Z"
    },
    {
      "id": "eko-71636ddfdd51b4b9",
      "address": "Saperów 17",
      "district": "Borek",
      "startDate": "2026-06-16",
      "endDate": "2026-06-18",
      "lat": 51.086188193,
      "lng": 17.00113618,
      "sourceMapUrl": "https://gabaryty.ekosystem.wroc.pl/?lat=51.086188193&lng=17.00113618&zoom=16&marker=1470",
      "sourcePageUrl": "https://gabaryty.ekosystem.wroc.pl/tabela-wywozu-odpadow/",
      "syncVersion": "2026-06-18T14:46:28.358Z",
      "syncedAt": "2026-06-18T14:46:28.358Z"
    },
    {
      "id": "eko-776d5d63f49a4f58",
      "address": "Semaforowa 63",
      "district": "Brochów",
      "startDate": "2026-06-16",
      "endDate": "2026-06-18",
      "lat": 51.059448417,
      "lng": 17.076910798,
      "sourceMapUrl": "https://gabaryty.ekosystem.wroc.pl/?lat=51.059448417&lng=17.076910798&zoom=16&marker=1489",
      "sourcePageUrl": "https://gabaryty.ekosystem.wroc.pl/tabela-wywozu-odpadow/",
      "syncVersion": "2026-06-18T14:46:28.358Z",
      "syncedAt": "2026-06-18T14:46:28.358Z"
    },
    {
      "id": "eko-1a15a393c289c249",
      "address": "Skarbowców 112",
      "district": "Krzyki - Partynice",
      "startDate": "2026-06-16",
      "endDate": "2026-06-18",
      "lat": 51.067717049,
      "lng": 16.991001787,
      "sourceMapUrl": "https://gabaryty.ekosystem.wroc.pl/?lat=51.067717049&lng=16.991001787&zoom=16&marker=1510",
      "sourcePageUrl": "https://gabaryty.ekosystem.wroc.pl/tabela-wywozu-odpadow/",
      "syncVersion": "2026-06-18T14:46:28.358Z",
      "syncedAt": "2026-06-18T14:46:28.358Z"
    },
    {
      "id": "eko-532d27c5911bc3f0",
      "address": "Słonimskiego 20",
      "district": "Kleczków",
      "startDate": "2026-06-16",
      "endDate": "2026-06-18",
      "lat": 51.131164964054,
      "lng": 17.045054410477,
      "sourceMapUrl": "https://gabaryty.ekosystem.wroc.pl/?lat=51.131164964054&lng=17.045054410477&zoom=16&marker=1727",
      "sourcePageUrl": "https://gabaryty.ekosystem.wroc.pl/tabela-wywozu-odpadow/",
      "syncVersion": "2026-06-18T14:46:28.358Z",
      "syncedAt": "2026-06-18T14:46:28.358Z"
    },
    {
      "id": "eko-28bf3fd80d35cf76",
      "address": "Smardzowska 2",
      "district": "Wojszyce",
      "startDate": "2026-06-16",
      "endDate": "2026-06-18",
      "lat": 51.062705893,
      "lng": 17.044295454,
      "sourceMapUrl": "https://gabaryty.ekosystem.wroc.pl/?lat=51.062705893&lng=17.044295454&zoom=16&marker=1555",
      "sourcePageUrl": "https://gabaryty.ekosystem.wroc.pl/tabela-wywozu-odpadow/",
      "syncVersion": "2026-06-18T14:46:28.358Z",
      "syncedAt": "2026-06-18T14:46:28.358Z"
    },
    {
      "id": "eko-42957b6ef97e1264",
      "address": "Sokola 32",
      "district": "Borek",
      "startDate": "2026-06-16",
      "endDate": "2026-06-18",
      "lat": 51.083141419,
      "lng": 17.006551998,
      "sourceMapUrl": "https://gabaryty.ekosystem.wroc.pl/?lat=51.083141419&lng=17.006551998&zoom=16&marker=1562",
      "sourcePageUrl": "https://gabaryty.ekosystem.wroc.pl/tabela-wywozu-odpadow/",
      "syncVersion": "2026-06-18T14:46:28.358Z",
      "syncedAt": "2026-06-18T14:46:28.358Z"
    },
    {
      "id": "eko-a8a54e364a6c2bb7",
      "address": "Sowia 67",
      "district": "Krzyki - Partynice",
      "startDate": "2026-06-16",
      "endDate": "2026-06-18",
      "lat": 51.075010742,
      "lng": 16.996384839,
      "sourceMapUrl": "https://gabaryty.ekosystem.wroc.pl/?lat=51.075010742&lng=16.996384839&zoom=16&marker=1567",
      "sourcePageUrl": "https://gabaryty.ekosystem.wroc.pl/tabela-wywozu-odpadow/",
      "syncVersion": "2026-06-18T14:46:28.358Z",
      "syncedAt": "2026-06-18T14:46:28.358Z"
    },
    {
      "id": "eko-a9f7874dfd422f1e",
      "address": "Stalowa 63",
      "district": "Gajowice",
      "startDate": "2026-06-16",
      "endDate": "2026-06-18",
      "lat": 51.100113175,
      "lng": 17.001059781,
      "sourceMapUrl": "https://gabaryty.ekosystem.wroc.pl/?lat=51.100113175&lng=17.001059781&zoom=16&marker=1601",
      "sourcePageUrl": "https://gabaryty.ekosystem.wroc.pl/tabela-wywozu-odpadow/",
      "syncVersion": "2026-06-18T14:46:28.358Z",
      "syncedAt": "2026-06-18T14:46:28.358Z"
    },
    {
      "id": "eko-214c470992f4ef69",
      "address": "Straussa 1",
      "district": "Jagodno",
      "startDate": "2026-06-16",
      "endDate": "2026-06-18",
      "lat": 51.052596025,
      "lng": 17.062745958,
      "sourceMapUrl": "https://gabaryty.ekosystem.wroc.pl/?lat=51.052596025&lng=17.062745958&zoom=16&marker=1644",
      "sourcePageUrl": "https://gabaryty.ekosystem.wroc.pl/tabela-wywozu-odpadow/",
      "syncVersion": "2026-06-18T14:46:28.358Z",
      "syncedAt": "2026-06-18T14:46:28.358Z"
    },
    {
      "id": "eko-4907bb0043eaf09e",
      "address": "Strumykowa 12",
      "district": "Strachocin - Swojczyce - Wojnów",
      "startDate": "2026-06-16",
      "endDate": "2026-06-18",
      "lat": 51.097294241,
      "lng": 17.153013408,
      "sourceMapUrl": "https://gabaryty.ekosystem.wroc.pl/?lat=51.097294241&lng=17.153013408&zoom=16&marker=1657",
      "sourcePageUrl": "https://gabaryty.ekosystem.wroc.pl/tabela-wywozu-odpadow/",
      "syncVersion": "2026-06-18T14:46:28.358Z",
      "syncedAt": "2026-06-18T14:46:28.358Z"
    },
    {
      "id": "eko-636fdf56eb4dda9f",
      "address": "Suwalska 22",
      "district": "Maślice",
      "startDate": "2026-06-16",
      "endDate": "2026-06-18",
      "lat": 51.156700588,
      "lng": 16.930391075,
      "sourceMapUrl": "https://gabaryty.ekosystem.wroc.pl/?lat=51.156700588&lng=16.930391075&zoom=16&marker=1675",
      "sourcePageUrl": "https://gabaryty.ekosystem.wroc.pl/tabela-wywozu-odpadow/",
      "syncVersion": "2026-06-18T14:46:28.358Z",
      "syncedAt": "2026-06-18T14:46:28.358Z"
    },
    {
      "id": "eko-2fe22e4f84a8eea2",
      "address": "Swobodna 14",
      "district": "Powstańców Śląskich",
      "startDate": "2026-06-16",
      "endDate": "2026-06-18",
      "lat": 51.097508907,
      "lng": 17.030380238,
      "sourceMapUrl": "https://gabaryty.ekosystem.wroc.pl/?lat=51.097508907&lng=17.030380238&zoom=16&marker=1697",
      "sourcePageUrl": "https://gabaryty.ekosystem.wroc.pl/tabela-wywozu-odpadow/",
      "syncVersion": "2026-06-18T14:46:28.358Z",
      "syncedAt": "2026-06-18T14:46:28.358Z"
    },
    {
      "id": "eko-5e1dcfeb41162cf4",
      "address": "Szczęśliwa 12",
      "district": "Gajowice",
      "startDate": "2026-06-16",
      "endDate": "2026-06-18",
      "lat": 51.098703378,
      "lng": 17.009068117,
      "sourceMapUrl": "https://gabaryty.ekosystem.wroc.pl/?lat=51.098703378&lng=17.009068117&zoom=16&marker=1710",
      "sourcePageUrl": "https://gabaryty.ekosystem.wroc.pl/tabela-wywozu-odpadow/",
      "syncVersion": "2026-06-18T14:46:28.358Z",
      "syncedAt": "2026-06-18T14:46:28.358Z"
    },
    {
      "id": "eko-99586f123fb3d1d8",
      "address": "Śliczna 54",
      "district": "Huby",
      "startDate": "2026-06-16",
      "endDate": "2026-06-18",
      "lat": 51.084754959,
      "lng": 17.043105816,
      "sourceMapUrl": "https://gabaryty.ekosystem.wroc.pl/?lat=51.084754959&lng=17.043105816&zoom=16&marker=1549",
      "sourcePageUrl": "https://gabaryty.ekosystem.wroc.pl/tabela-wywozu-odpadow/",
      "syncVersion": "2026-06-18T14:46:28.358Z",
      "syncedAt": "2026-06-18T14:46:28.358Z"
    },
    {
      "id": "eko-f00855a57b347c8f",
      "address": "Torfowa 41d",
      "district": "Sołtysowice",
      "startDate": "2026-06-16",
      "endDate": "2026-06-18",
      "lat": 51.15537183,
      "lng": 17.069587192,
      "sourceMapUrl": "https://gabaryty.ekosystem.wroc.pl/?lat=51.15537183&lng=17.069587192&zoom=16&marker=1751",
      "sourcePageUrl": "https://gabaryty.ekosystem.wroc.pl/tabela-wywozu-odpadow/",
      "syncVersion": "2026-06-18T14:46:28.358Z",
      "syncedAt": "2026-06-18T14:46:28.358Z"
    },
    {
      "id": "eko-c26dfbe92037ce5b",
      "address": "Vivaldiego 37",
      "district": "Jagodno",
      "startDate": "2026-06-16",
      "endDate": "2026-06-18",
      "lat": 51.051093702,
      "lng": 17.064888989,
      "sourceMapUrl": "https://gabaryty.ekosystem.wroc.pl/?lat=51.051093702&lng=17.064888989&zoom=16&marker=1787",
      "sourcePageUrl": "https://gabaryty.ekosystem.wroc.pl/tabela-wywozu-odpadow/",
      "syncVersion": "2026-06-18T14:46:28.358Z",
      "syncedAt": "2026-06-18T14:46:28.358Z"
    },
    {
      "id": "eko-1ae0cf448038f2cc",
      "address": "Wieczysta 125",
      "district": "Huby",
      "startDate": "2026-06-16",
      "endDate": "2026-06-18",
      "lat": 51.085791934,
      "lng": 17.040684043,
      "sourceMapUrl": "https://gabaryty.ekosystem.wroc.pl/?lat=51.085791934&lng=17.040684043&zoom=16&marker=1844",
      "sourcePageUrl": "https://gabaryty.ekosystem.wroc.pl/tabela-wywozu-odpadow/",
      "syncVersion": "2026-06-18T14:46:28.358Z",
      "syncedAt": "2026-06-18T14:46:28.358Z"
    },
    {
      "id": "eko-5d73d583695806d3",
      "address": "Wysłoucha 70",
      "district": "Oporów",
      "startDate": "2026-06-16",
      "endDate": "2026-06-18",
      "lat": 51.076029878,
      "lng": 16.978202101,
      "sourceMapUrl": "https://gabaryty.ekosystem.wroc.pl/?lat=51.076029878&lng=16.978202101&zoom=16&marker=1907",
      "sourcePageUrl": "https://gabaryty.ekosystem.wroc.pl/tabela-wywozu-odpadow/",
      "syncVersion": "2026-06-18T14:46:28.358Z",
      "syncedAt": "2026-06-18T14:46:28.358Z"
    },
    {
      "id": "eko-fc802a0991526f72",
      "address": "Zachodnia 26",
      "district": "Szczepin",
      "startDate": "2026-06-16",
      "endDate": "2026-06-18",
      "lat": 51.117220838,
      "lng": 17.003784888,
      "sourceMapUrl": "https://gabaryty.ekosystem.wroc.pl/?lat=51.117220838&lng=17.003784888&zoom=16&marker=1917",
      "sourcePageUrl": "https://gabaryty.ekosystem.wroc.pl/tabela-wywozu-odpadow/",
      "syncVersion": "2026-06-18T14:46:28.358Z",
      "syncedAt": "2026-06-18T14:46:28.358Z"
    },
    {
      "id": "eko-2c2439af3efba8f2",
      "address": "Żelazna 29",
      "district": "Gajowice",
      "startDate": "2026-06-16",
      "endDate": "2026-06-18",
      "lat": 51.096903479,
      "lng": 17.01025963,
      "sourceMapUrl": "https://gabaryty.ekosystem.wroc.pl/?lat=51.096903479&lng=17.01025963&zoom=16&marker=1963",
      "sourcePageUrl": "https://gabaryty.ekosystem.wroc.pl/tabela-wywozu-odpadow/",
      "syncVersion": "2026-06-18T14:46:28.358Z",
      "syncedAt": "2026-06-18T14:46:28.358Z"
    },
    {
      "id": "eko-7a09fa50206d3fda",
      "address": "Żmigrodzka 32",
      "district": "Karłowice - Różanka",
      "startDate": "2026-06-16",
      "endDate": "2026-06-18",
      "lat": 51.137151793,
      "lng": 17.035017989,
      "sourceMapUrl": "https://gabaryty.ekosystem.wroc.pl/?lat=51.137151793&lng=17.035017989&zoom=16&marker=1992",
      "sourcePageUrl": "https://gabaryty.ekosystem.wroc.pl/tabela-wywozu-odpadow/",
      "syncVersion": "2026-06-18T14:46:28.358Z",
      "syncedAt": "2026-06-18T14:46:28.358Z"
    },
    {
      "id": "eko-48c2a6536939d045",
      "address": "Żwirki I Wigury 20",
      "district": "Muchobór Wielki",
      "startDate": "2026-06-16",
      "endDate": "2026-06-18",
      "lat": 51.096794742099,
      "lng": 16.93444237873,
      "sourceMapUrl": "https://gabaryty.ekosystem.wroc.pl/?lat=51.096794742099&lng=16.93444237873&zoom=16&marker=2248",
      "sourcePageUrl": "https://gabaryty.ekosystem.wroc.pl/tabela-wywozu-odpadow/",
      "syncVersion": "2026-06-18T14:46:28.358Z",
      "syncedAt": "2026-06-18T14:46:28.358Z"
    },
    {
      "id": "eko-90bd8023e329f161",
      "address": "al. gen. Hallera 127",
      "district": "Grabiszyn - Grabiszynek",
      "startDate": "2026-06-19",
      "endDate": "2026-06-21",
      "lat": 51.091170933,
      "lng": 16.990129319,
      "sourceMapUrl": "https://gabaryty.ekosystem.wroc.pl/?lat=51.091170933&lng=16.990129319&zoom=16&marker=22",
      "sourcePageUrl": "https://gabaryty.ekosystem.wroc.pl/tabela-wywozu-odpadow/",
      "syncVersion": "2026-06-18T14:46:28.358Z",
      "syncedAt": "2026-06-18T14:46:28.358Z"
    },
    {
      "id": "eko-aa59fe942931c076",
      "address": "al. gen. Hallera 147",
      "district": "Grabiszyn - Grabiszynek",
      "startDate": "2026-06-19",
      "endDate": "2026-06-21",
      "lat": 51.091597567,
      "lng": 16.987612835,
      "sourceMapUrl": "https://gabaryty.ekosystem.wroc.pl/?lat=51.091597567&lng=16.987612835&zoom=16&marker=29",
      "sourcePageUrl": "https://gabaryty.ekosystem.wroc.pl/tabela-wywozu-odpadow/",
      "syncVersion": "2026-06-18T14:46:28.358Z",
      "syncedAt": "2026-06-18T14:46:28.358Z"
    },
    {
      "id": "eko-19260da16d2791c4",
      "address": "al. gen. Hallera 159",
      "district": "Grabiszyn - Grabiszynek",
      "startDate": "2026-06-19",
      "endDate": "2026-06-21",
      "lat": 51.092392552,
      "lng": 16.984002809,
      "sourceMapUrl": "https://gabaryty.ekosystem.wroc.pl/?lat=51.092392552&lng=16.984002809&zoom=16&marker=30",
      "sourcePageUrl": "https://gabaryty.ekosystem.wroc.pl/tabela-wywozu-odpadow/",
      "syncVersion": "2026-06-18T14:46:28.358Z",
      "syncedAt": "2026-06-18T14:46:28.358Z"
    },
    {
      "id": "eko-0f27196792947121",
      "address": "al. Śliwowa 26",
      "district": "Maślice",
      "startDate": "2026-06-19",
      "endDate": "2026-06-21",
      "lat": 51.155736556,
      "lng": 16.941037931,
      "sourceMapUrl": "https://gabaryty.ekosystem.wroc.pl/?lat=51.155736556&lng=16.941037931&zoom=16&marker=67",
      "sourcePageUrl": "https://gabaryty.ekosystem.wroc.pl/tabela-wywozu-odpadow/",
      "syncVersion": "2026-06-18T14:46:28.358Z",
      "syncedAt": "2026-06-18T14:46:28.358Z"
    },
    {
      "id": "eko-61752629fd84fd9b",
      "address": "al. Śliwowa 6",
      "district": "Maślice",
      "startDate": "2026-06-19",
      "endDate": "2026-06-21",
      "lat": 51.156165468,
      "lng": 16.939532017,
      "sourceMapUrl": "https://gabaryty.ekosystem.wroc.pl/?lat=51.156165468&lng=16.939532017&zoom=16&marker=68",
      "sourcePageUrl": "https://gabaryty.ekosystem.wroc.pl/tabela-wywozu-odpadow/",
      "syncVersion": "2026-06-18T14:46:28.358Z",
      "syncedAt": "2026-06-18T14:46:28.358Z"
    },
    {
      "id": "eko-5e050953c1e726c7",
      "address": "Bacciarellego 51",
      "district": "Biskupin - Sępolno - Dąbie - Bartoszowice",
      "startDate": "2026-06-19",
      "endDate": "2026-06-21",
      "lat": 51.103130757,
      "lng": 17.11435755,
      "sourceMapUrl": "https://gabaryty.ekosystem.wroc.pl/?lat=51.103130757&lng=17.11435755&zoom=16&marker=99",
      "sourcePageUrl": "https://gabaryty.ekosystem.wroc.pl/tabela-wywozu-odpadow/",
      "syncVersion": "2026-06-18T14:46:28.358Z",
      "syncedAt": "2026-06-18T14:46:28.358Z"
    },
    {
      "id": "eko-b00d2300f455ee40",
      "address": "Balzaka 55",
      "district": "Oporów",
      "startDate": "2026-06-19",
      "endDate": "2026-06-21",
      "lat": 51.077170841,
      "lng": 16.959215107,
      "sourceMapUrl": "https://gabaryty.ekosystem.wroc.pl/?lat=51.077170841&lng=16.959215107&zoom=16&marker=106",
      "sourcePageUrl": "https://gabaryty.ekosystem.wroc.pl/tabela-wywozu-odpadow/",
      "syncVersion": "2026-06-18T14:46:28.358Z",
      "syncedAt": "2026-06-18T14:46:28.358Z"
    },
    {
      "id": "eko-ab77db81f79826c3",
      "address": "Boiskowa 10",
      "district": "Bieńkowice",
      "startDate": "2026-06-19",
      "endDate": "2026-06-21",
      "lat": 51.047780918,
      "lng": 17.087954661,
      "sourceMapUrl": "https://gabaryty.ekosystem.wroc.pl/?lat=51.047780918&lng=17.087954661&zoom=16&marker=136",
      "sourcePageUrl": "https://gabaryty.ekosystem.wroc.pl/tabela-wywozu-odpadow/",
      "syncVersion": "2026-06-18T14:46:28.358Z",
      "syncedAt": "2026-06-18T14:46:28.358Z"
    },
    {
      "id": "eko-cce3dfa02614eca3",
      "address": "Bolesławiecka 2",
      "district": "Szczepin",
      "startDate": "2026-06-19",
      "endDate": "2026-06-21",
      "lat": 51.114171293,
      "lng": 17.002063832,
      "sourceMapUrl": "https://gabaryty.ekosystem.wroc.pl/?lat=51.114171293&lng=17.002063832&zoom=16&marker=153",
      "sourcePageUrl": "https://gabaryty.ekosystem.wroc.pl/tabela-wywozu-odpadow/",
      "syncVersion": "2026-06-18T14:46:28.358Z",
      "syncedAt": "2026-06-18T14:46:28.358Z"
    },
    {
      "id": "eko-0fc658b83406c20b",
      "address": "Borowska 196",
      "district": "Gaj",
      "startDate": "2026-06-19",
      "endDate": "2026-06-21",
      "lat": 51.076327846,
      "lng": 17.033733265,
      "sourceMapUrl": "https://gabaryty.ekosystem.wroc.pl/?lat=51.076327846&lng=17.033733265&zoom=16&marker=2058",
      "sourcePageUrl": "https://gabaryty.ekosystem.wroc.pl/tabela-wywozu-odpadow/",
      "syncVersion": "2026-06-18T14:46:28.358Z",
      "syncedAt": "2026-06-18T14:46:28.358Z"
    },
    {
      "id": "eko-f5d22c4b0c1d31aa",
      "address": "Borowska 40",
      "district": "Huby",
      "startDate": "2026-06-19",
      "endDate": "2026-06-21",
      "lat": 51.092100374,
      "lng": 17.034220161,
      "sourceMapUrl": "https://gabaryty.ekosystem.wroc.pl/?lat=51.092100374&lng=17.034220161&zoom=16&marker=160",
      "sourcePageUrl": "https://gabaryty.ekosystem.wroc.pl/tabela-wywozu-odpadow/",
      "syncVersion": "2026-06-18T14:46:28.358Z",
      "syncedAt": "2026-06-18T14:46:28.358Z"
    },
    {
      "id": "eko-8595e2e9ed296b25",
      "address": "Brylantowa 1",
      "district": "Ołtaszyn",
      "startDate": "2026-06-19",
      "endDate": "2026-06-21",
      "lat": 51.051601489,
      "lng": 17.028116856,
      "sourceMapUrl": "https://gabaryty.ekosystem.wroc.pl/?lat=51.051601489&lng=17.028116856&zoom=16&marker=178",
      "sourcePageUrl": "https://gabaryty.ekosystem.wroc.pl/tabela-wywozu-odpadow/",
      "syncVersion": "2026-06-18T14:46:28.358Z",
      "syncedAt": "2026-06-18T14:46:28.358Z"
    },
    {
      "id": "eko-e7b5ff40d4c47297",
      "address": "Byczyńska 11",
      "district": "Strachocin - Swojczyce - Wojnów",
      "startDate": "2026-06-19",
      "endDate": "2026-06-21",
      "lat": 51.118813778,
      "lng": 17.126168171,
      "sourceMapUrl": "https://gabaryty.ekosystem.wroc.pl/?lat=51.118813778&lng=17.126168171&zoom=16&marker=207",
      "sourcePageUrl": "https://gabaryty.ekosystem.wroc.pl/tabela-wywozu-odpadow/",
      "syncVersion": "2026-06-18T14:46:28.358Z",
      "syncedAt": "2026-06-18T14:46:28.358Z"
    },
    {
      "id": "eko-05d979fc3f0ab2be",
      "address": "Chełmońskiego 40",
      "district": "Biskupin - Sępolno - Dąbie - Bartoszowice",
      "startDate": "2026-06-19",
      "endDate": "2026-06-21",
      "lat": 51.099036814,
      "lng": 17.096674833,
      "sourceMapUrl": "https://gabaryty.ekosystem.wroc.pl/?lat=51.099036814&lng=17.096674833&zoom=16&marker=229",
      "sourcePageUrl": "https://gabaryty.ekosystem.wroc.pl/tabela-wywozu-odpadow/",
      "syncVersion": "2026-06-18T14:46:28.358Z",
      "syncedAt": "2026-06-18T14:46:28.358Z"
    },
    {
      "id": "eko-2164f10752aa03a8",
      "address": "Chełmska 12",
      "district": "Maślice",
      "startDate": "2026-06-19",
      "endDate": "2026-06-21",
      "lat": 51.161814152,
      "lng": 16.922622099,
      "sourceMapUrl": "https://gabaryty.ekosystem.wroc.pl/?lat=51.161814152&lng=16.922622099&zoom=16&marker=230",
      "sourcePageUrl": "https://gabaryty.ekosystem.wroc.pl/tabela-wywozu-odpadow/",
      "syncVersion": "2026-06-18T14:46:28.358Z",
      "syncedAt": "2026-06-18T14:46:28.358Z"
    },
    {
      "id": "eko-bcfb23e4e12f5751",
      "address": "Chorzowska 16",
      "district": "Księże",
      "startDate": "2026-06-19",
      "endDate": "2026-06-21",
      "lat": 51.075783669,
      "lng": 17.082931565,
      "sourceMapUrl": "https://gabaryty.ekosystem.wroc.pl/?lat=51.075783669&lng=17.082931565&zoom=16&marker=235",
      "sourcePageUrl": "https://gabaryty.ekosystem.wroc.pl/tabela-wywozu-odpadow/",
      "syncVersion": "2026-06-18T14:46:28.358Z",
      "syncedAt": "2026-06-18T14:46:28.358Z"
    },
    {
      "id": "eko-6a0836b72dea061f",
      "address": "Chwałkowska 4",
      "district": "Pracze Odrzańskie",
      "startDate": "2026-06-19",
      "endDate": "2026-06-21",
      "lat": 51.159272402,
      "lng": 16.91039429,
      "sourceMapUrl": "https://gabaryty.ekosystem.wroc.pl/?lat=51.159272402&lng=16.91039429&zoom=16&marker=241",
      "sourcePageUrl": "https://gabaryty.ekosystem.wroc.pl/tabela-wywozu-odpadow/",
      "syncVersion": "2026-06-18T14:46:28.358Z",
      "syncedAt": "2026-06-18T14:46:28.358Z"
    },
    {
      "id": "eko-f83fe707af1085e0",
      "address": "Ciepła 10",
      "district": "Huby",
      "startDate": "2026-06-19",
      "endDate": "2026-06-21",
      "lat": 51.092447214,
      "lng": 17.036169949,
      "sourceMapUrl": "https://gabaryty.ekosystem.wroc.pl/?lat=51.092447214&lng=17.036169949&zoom=16&marker=243",
      "sourcePageUrl": "https://gabaryty.ekosystem.wroc.pl/tabela-wywozu-odpadow/",
      "syncVersion": "2026-06-18T14:46:28.358Z",
      "syncedAt": "2026-06-18T14:46:28.358Z"
    },
    {
      "id": "eko-e0599a2b9ea79e11",
      "address": "Czajkowskiego 39a",
      "district": "Karłowice - Różanka",
      "startDate": "2026-06-19",
      "endDate": "2026-06-21",
      "lat": 51.140017677,
      "lng": 17.066797683,
      "sourceMapUrl": "https://gabaryty.ekosystem.wroc.pl/?lat=51.140017677&lng=17.066797683&zoom=16&marker=267",
      "sourcePageUrl": "https://gabaryty.ekosystem.wroc.pl/tabela-wywozu-odpadow/",
      "syncVersion": "2026-06-18T14:46:28.358Z",
      "syncedAt": "2026-06-18T14:46:28.358Z"
    },
    {
      "id": "eko-d82a72c78eea5b96",
      "address": "Czartoryskiego 29",
      "district": "Polanowice - Poświętne - Ligota",
      "startDate": "2026-06-19",
      "endDate": "2026-06-21",
      "lat": 51.154761012,
      "lng": 17.046435404,
      "sourceMapUrl": "https://gabaryty.ekosystem.wroc.pl/?lat=51.154761012&lng=17.046435404&zoom=16&marker=282",
      "sourcePageUrl": "https://gabaryty.ekosystem.wroc.pl/tabela-wywozu-odpadow/",
      "syncVersion": "2026-06-18T14:46:28.358Z",
      "syncedAt": "2026-06-18T14:46:28.358Z"
    },
    {
      "id": "eko-5bf584a4a0cc8d68",
      "address": "Czartoryskiego 49",
      "district": "Polanowice - Poświętne - Ligota",
      "startDate": "2026-06-19",
      "endDate": "2026-06-21",
      "lat": 51.1537511,
      "lng": 17.0478993,
      "sourceMapUrl": "https://gabaryty.ekosystem.wroc.pl/?lat=51.1537511&lng=17.0478993&zoom=16&marker=284",
      "sourcePageUrl": "https://gabaryty.ekosystem.wroc.pl/tabela-wywozu-odpadow/",
      "syncVersion": "2026-06-18T14:46:28.358Z",
      "syncedAt": "2026-06-18T14:46:28.358Z"
    },
    {
      "id": "eko-32f3e50e1affab01",
      "address": "Czekoladowa 72",
      "district": "Klecina",
      "startDate": "2026-06-19",
      "endDate": "2026-06-21",
      "lat": 51.057905673,
      "lng": 16.972539826,
      "sourceMapUrl": "https://gabaryty.ekosystem.wroc.pl/?lat=51.057905673&lng=16.972539826&zoom=16&marker=287",
      "sourcePageUrl": "https://gabaryty.ekosystem.wroc.pl/tabela-wywozu-odpadow/",
      "syncVersion": "2026-06-18T14:46:28.358Z",
      "syncedAt": "2026-06-18T14:46:28.358Z"
    },
    {
      "id": "eko-daccf38d2000c38d",
      "address": "Dawida 26",
      "district": "Huby",
      "startDate": "2026-06-19",
      "endDate": "2026-06-21",
      "lat": 51.09369207,
      "lng": 17.041480368,
      "sourceMapUrl": "https://gabaryty.ekosystem.wroc.pl/?lat=51.09369207&lng=17.041480368&zoom=16&marker=301",
      "sourcePageUrl": "https://gabaryty.ekosystem.wroc.pl/tabela-wywozu-odpadow/",
      "syncVersion": "2026-06-18T14:46:28.358Z",
      "syncedAt": "2026-06-18T14:46:28.358Z"
    },
    {
      "id": "eko-9268359c7c997a69",
      "address": "Dębicka 27",
      "district": "Leśnica",
      "startDate": "2026-06-19",
      "endDate": "2026-06-21",
      "lat": 51.136651228,
      "lng": 16.891521733,
      "sourceMapUrl": "https://gabaryty.ekosystem.wroc.pl/?lat=51.136651228&lng=16.891521733&zoom=16&marker=302",
      "sourcePageUrl": "https://gabaryty.ekosystem.wroc.pl/tabela-wywozu-odpadow/",
      "syncVersion": "2026-06-18T14:46:28.358Z",
      "syncedAt": "2026-06-18T14:46:28.358Z"
    },
    {
      "id": "eko-5c16db0f2a80a90a",
      "address": "Długosza 39",
      "district": "Karłowice - Różanka",
      "startDate": "2026-06-19",
      "endDate": "2026-06-21",
      "lat": 51.133416801,
      "lng": 17.063978263,
      "sourceMapUrl": "https://gabaryty.ekosystem.wroc.pl/?lat=51.133416801&lng=17.063978263&zoom=16&marker=365",
      "sourcePageUrl": "https://gabaryty.ekosystem.wroc.pl/tabela-wywozu-odpadow/",
      "syncVersion": "2026-06-18T14:46:28.358Z",
      "syncedAt": "2026-06-18T14:46:28.358Z"
    },
    {
      "id": "eko-094cc07d0d4e0a9b",
      "address": "Dolnobrzeska 18",
      "district": "Leśnica",
      "startDate": "2026-06-19",
      "endDate": "2026-06-21",
      "lat": 51.148348391,
      "lng": 16.866984016,
      "sourceMapUrl": "https://gabaryty.ekosystem.wroc.pl/?lat=51.148348391&lng=16.866984016&zoom=16&marker=315",
      "sourcePageUrl": "https://gabaryty.ekosystem.wroc.pl/tabela-wywozu-odpadow/",
      "syncVersion": "2026-06-18T14:46:28.358Z",
      "syncedAt": "2026-06-18T14:46:28.358Z"
    },
    {
      "id": "eko-4ad8b2d0987a00a1",
      "address": "Dworcowa 30",
      "district": "Przedmieście Oławskie",
      "startDate": "2026-06-19",
      "endDate": "2026-06-21",
      "lat": 51.100235929,
      "lng": 17.039695434,
      "sourceMapUrl": "https://gabaryty.ekosystem.wroc.pl/?lat=51.100235929&lng=17.039695434&zoom=16&marker=342",
      "sourcePageUrl": "https://gabaryty.ekosystem.wroc.pl/tabela-wywozu-odpadow/",
      "syncVersion": "2026-06-18T14:46:28.358Z",
      "syncedAt": "2026-06-18T14:46:28.358Z"
    },
    {
      "id": "eko-b8b45abde297c1b1",
      "address": "Dworcowa 6",
      "district": "Przedmieście Oławskie",
      "startDate": "2026-06-19",
      "endDate": "2026-06-21",
      "lat": 51.102631388,
      "lng": 17.040114679,
      "sourceMapUrl": "https://gabaryty.ekosystem.wroc.pl/?lat=51.102631388&lng=17.040114679&zoom=16&marker=343",
      "sourcePageUrl": "https://gabaryty.ekosystem.wroc.pl/tabela-wywozu-odpadow/",
      "syncVersion": "2026-06-18T14:46:28.358Z",
      "syncedAt": "2026-06-18T14:46:28.358Z"
    },
    {
      "id": "eko-d9cd3cf43b532ef0",
      "address": "Gajowa 30",
      "district": "Huby",
      "startDate": "2026-06-19",
      "endDate": "2026-06-21",
      "lat": 51.093072077,
      "lng": 17.040879765,
      "sourceMapUrl": "https://gabaryty.ekosystem.wroc.pl/?lat=51.093072077&lng=17.040879765&zoom=16&marker=385",
      "sourcePageUrl": "https://gabaryty.ekosystem.wroc.pl/tabela-wywozu-odpadow/",
      "syncVersion": "2026-06-18T14:46:28.358Z",
      "syncedAt": "2026-06-18T14:46:28.358Z"
    },
    {
      "id": "eko-2e72248c89f9fe95",
      "address": "Gajowicka 119",
      "district": "Gajowice",
      "startDate": "2026-06-19",
      "endDate": "2026-06-21",
      "lat": 51.09419568,
      "lng": 17.008310513,
      "sourceMapUrl": "https://gabaryty.ekosystem.wroc.pl/?lat=51.09419568&lng=17.008310513&zoom=16&marker=390",
      "sourcePageUrl": "https://gabaryty.ekosystem.wroc.pl/tabela-wywozu-odpadow/",
      "syncVersion": "2026-06-18T14:46:28.358Z",
      "syncedAt": "2026-06-18T14:46:28.358Z"
    },
    {
      "id": "eko-743bdb70c497d2b1",
      "address": "Gajowicka 166",
      "district": "Borek",
      "startDate": "2026-06-19",
      "endDate": "2026-06-21",
      "lat": 51.086694761,
      "lng": 17.005484171,
      "sourceMapUrl": "https://gabaryty.ekosystem.wroc.pl/?lat=51.086694761&lng=17.005484171&zoom=16&marker=397",
      "sourcePageUrl": "https://gabaryty.ekosystem.wroc.pl/tabela-wywozu-odpadow/",
      "syncVersion": "2026-06-18T14:46:28.358Z",
      "syncedAt": "2026-06-18T14:46:28.358Z"
    },
    {
      "id": "eko-ff65b681091c1efe",
      "address": "Galla Anonima 2c",
      "district": "Karłowice - Różanka",
      "startDate": "2026-06-19",
      "endDate": "2026-06-21",
      "lat": 51.131125057,
      "lng": 17.059487078,
      "sourceMapUrl": "https://gabaryty.ekosystem.wroc.pl/?lat=51.131125057&lng=17.059487078&zoom=16&marker=402",
      "sourcePageUrl": "https://gabaryty.ekosystem.wroc.pl/tabela-wywozu-odpadow/",
      "syncVersion": "2026-06-18T14:46:28.358Z",
      "syncedAt": "2026-06-18T14:46:28.358Z"
    },
    {
      "id": "eko-e4bb3d248ae7807f",
      "address": "gen. Kniaziewicza 17",
      "district": "Przedmieście Oławskie",
      "startDate": "2026-06-19",
      "endDate": "2026-06-21",
      "lat": 51.101575103,
      "lng": 17.04263821,
      "sourceMapUrl": "https://gabaryty.ekosystem.wroc.pl/?lat=51.101575103&lng=17.04263821&zoom=16&marker=420",
      "sourcePageUrl": "https://gabaryty.ekosystem.wroc.pl/tabela-wywozu-odpadow/",
      "syncVersion": "2026-06-18T14:46:28.358Z",
      "syncedAt": "2026-06-18T14:46:28.358Z"
    },
    {
      "id": "eko-0cf5241eba71b92c",
      "address": "gen. Okulickiego 1",
      "district": "Psie Pole - Zawidawie",
      "startDate": "2026-06-19",
      "endDate": "2026-06-21",
      "lat": 51.16012963,
      "lng": 17.122109768,
      "sourceMapUrl": "https://gabaryty.ekosystem.wroc.pl/?lat=51.16012963&lng=17.122109768&zoom=16&marker=428",
      "sourcePageUrl": "https://gabaryty.ekosystem.wroc.pl/tabela-wywozu-odpadow/",
      "syncVersion": "2026-06-18T14:46:28.358Z",
      "syncedAt": "2026-06-18T14:46:28.358Z"
    },
    {
      "id": "eko-19e7448fe46b534e",
      "address": "gen. Prądzyńskiego 22",
      "district": "Przedmieście Oławskie",
      "startDate": "2026-06-19",
      "endDate": "2026-06-21",
      "lat": 51.100082873,
      "lng": 17.05090987,
      "sourceMapUrl": "https://gabaryty.ekosystem.wroc.pl/?lat=51.100082873&lng=17.05090987&zoom=16&marker=434",
      "sourcePageUrl": "https://gabaryty.ekosystem.wroc.pl/tabela-wywozu-odpadow/",
      "syncVersion": "2026-06-18T14:46:28.358Z",
      "syncedAt": "2026-06-18T14:46:28.358Z"
    },
    {
      "id": "eko-d1347bedf5d4cb7e",
      "address": "Gliniana 71",
      "district": "Huby",
      "startDate": "2026-06-19",
      "endDate": "2026-06-21",
      "lat": 51.091290353,
      "lng": 17.041018061,
      "sourceMapUrl": "https://gabaryty.ekosystem.wroc.pl/?lat=51.091290353&lng=17.041018061&zoom=16&marker=474",
      "sourcePageUrl": "https://gabaryty.ekosystem.wroc.pl/tabela-wywozu-odpadow/",
      "syncVersion": "2026-06-18T14:46:28.358Z",
      "syncedAt": "2026-06-18T14:46:28.358Z"
    },
    {
      "id": "eko-6ecb66e2193e35b1",
      "address": "Główna 68",
      "district": "Pracze Odrzańskie",
      "startDate": "2026-06-19",
      "endDate": "2026-06-21",
      "lat": 51.16077397,
      "lng": 16.901930153,
      "sourceMapUrl": "https://gabaryty.ekosystem.wroc.pl/?lat=51.16077397&lng=16.901930153&zoom=16&marker=553",
      "sourcePageUrl": "https://gabaryty.ekosystem.wroc.pl/tabela-wywozu-odpadow/",
      "syncVersion": "2026-06-18T14:46:28.358Z",
      "syncedAt": "2026-06-18T14:46:28.358Z"
    },
    {
      "id": "eko-ea2f9b5f6054d997",
      "address": "Gorczycowa 6",
      "district": "Lipa Piotrowska",
      "startDate": "2026-06-19",
      "endDate": "2026-06-21",
      "lat": 51.181691823,
      "lng": 17.000964763,
      "sourceMapUrl": "https://gabaryty.ekosystem.wroc.pl/?lat=51.181691823&lng=17.000964763&zoom=16&marker=482",
      "sourcePageUrl": "https://gabaryty.ekosystem.wroc.pl/tabela-wywozu-odpadow/",
      "syncVersion": "2026-06-18T14:46:28.358Z",
      "syncedAt": "2026-06-18T14:46:28.358Z"
    },
    {
      "id": "eko-e94098fe128fd94f",
      "address": "Gospodarska 1",
      "district": "Strachocin - Swojczyce - Wojnów",
      "startDate": "2026-06-19",
      "endDate": "2026-06-21",
      "lat": 51.117349104,
      "lng": 17.12378089,
      "sourceMapUrl": "https://gabaryty.ekosystem.wroc.pl/?lat=51.117349104&lng=17.12378089&zoom=16&marker=498",
      "sourcePageUrl": "https://gabaryty.ekosystem.wroc.pl/tabela-wywozu-odpadow/",
      "syncVersion": "2026-06-18T14:46:28.358Z",
      "syncedAt": "2026-06-18T14:46:28.358Z"
    },
    {
      "id": "eko-c7c186dc98534965",
      "address": "Górecka 82a",
      "district": "Leśnica",
      "startDate": "2026-06-19",
      "endDate": "2026-06-21",
      "lat": 51.157185085,
      "lng": 16.908851444,
      "sourceMapUrl": "https://gabaryty.ekosystem.wroc.pl/?lat=51.157185085&lng=16.908851444&zoom=16&marker=483",
      "sourcePageUrl": "https://gabaryty.ekosystem.wroc.pl/tabela-wywozu-odpadow/",
      "syncVersion": "2026-06-18T14:46:28.358Z",
      "syncedAt": "2026-06-18T14:46:28.358Z"
    },
    {
      "id": "eko-4a4fda184022abb2",
      "address": "Grabiszyńska 131",
      "district": "Gajowice",
      "startDate": "2026-06-19",
      "endDate": "2026-06-21",
      "lat": 51.100161786,
      "lng": 17.00223925,
      "sourceMapUrl": "https://gabaryty.ekosystem.wroc.pl/?lat=51.100161786&lng=17.00223925&zoom=16&marker=510",
      "sourcePageUrl": "https://gabaryty.ekosystem.wroc.pl/tabela-wywozu-odpadow/",
      "syncVersion": "2026-06-18T14:46:28.358Z",
      "syncedAt": "2026-06-18T14:46:28.358Z"
    },
    {
      "id": "eko-243c2b7d8b8589e7",
      "address": "Graniczna 2be",
      "district": "Muchobór Wielki",
      "startDate": "2026-06-19",
      "endDate": "2026-06-21",
      "lat": 51.105449576,
      "lng": 16.943295005,
      "sourceMapUrl": "https://gabaryty.ekosystem.wroc.pl/?lat=51.105449576&lng=16.943295005&zoom=16&marker=524",
      "sourcePageUrl": "https://gabaryty.ekosystem.wroc.pl/tabela-wywozu-odpadow/",
      "syncVersion": "2026-06-18T14:46:28.358Z",
      "syncedAt": "2026-06-18T14:46:28.358Z"
    },
    {
      "id": "eko-496a6c2bd2e30e47",
      "address": "Grochowa 25",
      "district": "Gajowice",
      "startDate": "2026-06-19",
      "endDate": "2026-06-21",
      "lat": 51.097698968,
      "lng": 17.002949464,
      "sourceMapUrl": "https://gabaryty.ekosystem.wroc.pl/?lat=51.097698968&lng=17.002949464&zoom=16&marker=532",
      "sourcePageUrl": "https://gabaryty.ekosystem.wroc.pl/tabela-wywozu-odpadow/",
      "syncVersion": "2026-06-18T14:46:28.358Z",
      "syncedAt": "2026-06-18T14:46:28.358Z"
    },
    {
      "id": "eko-9935ea430a8ed509",
      "address": "Hłaski 37",
      "district": "Muchobór Wielki",
      "startDate": "2026-06-19",
      "endDate": "2026-06-21",
      "lat": 51.100323868,
      "lng": 16.948537275,
      "sourceMapUrl": "https://gabaryty.ekosystem.wroc.pl/?lat=51.100323868&lng=16.948537275&zoom=16&marker=586",
      "sourcePageUrl": "https://gabaryty.ekosystem.wroc.pl/tabela-wywozu-odpadow/",
      "syncVersion": "2026-06-18T14:46:28.358Z",
      "syncedAt": "2026-06-18T14:46:28.358Z"
    },
    {
      "id": "eko-721f5b9db529c437",
      "address": "Idzikowskiego 30",
      "district": "Gądów - Popowice Płd.",
      "startDate": "2026-06-19",
      "endDate": "2026-06-21",
      "lat": 51.12871944,
      "lng": 16.959705862,
      "sourceMapUrl": "https://gabaryty.ekosystem.wroc.pl/?lat=51.12871944&lng=16.959705862&zoom=16&marker=2098",
      "sourcePageUrl": "https://gabaryty.ekosystem.wroc.pl/tabela-wywozu-odpadow/",
      "syncVersion": "2026-06-18T14:46:28.358Z",
      "syncedAt": "2026-06-18T14:46:28.358Z"
    },
    {
      "id": "eko-fc2767361d18f4f7",
      "address": "Jaworska 5",
      "district": "Szczepin",
      "startDate": "2026-06-19",
      "endDate": "2026-06-21",
      "lat": 51.114504174,
      "lng": 16.99376453,
      "sourceMapUrl": "https://gabaryty.ekosystem.wroc.pl/?lat=51.114504174&lng=16.99376453&zoom=16&marker=630",
      "sourcePageUrl": "https://gabaryty.ekosystem.wroc.pl/tabela-wywozu-odpadow/",
      "syncVersion": "2026-06-18T14:46:28.358Z",
      "syncedAt": "2026-06-18T14:46:28.358Z"
    },
    {
      "id": "eko-50323986f62b0e46",
      "address": "Jerzmanowska 133",
      "district": "Jerzmanowo - Jarnołtów - Strachowice - Osiniec",
      "startDate": "2026-06-19",
      "endDate": "2026-06-21",
      "lat": 51.12082849,
      "lng": 16.863654397,
      "sourceMapUrl": "https://gabaryty.ekosystem.wroc.pl/?lat=51.12082849&lng=16.863654397&zoom=16&marker=644",
      "sourcePageUrl": "https://gabaryty.ekosystem.wroc.pl/tabela-wywozu-odpadow/",
      "syncVersion": "2026-06-18T14:46:28.358Z",
      "syncedAt": "2026-06-18T14:46:28.358Z"
    },
    {
      "id": "eko-14fee1496bf60443",
      "address": "Jesionowa 25",
      "district": "Tarnogaj",
      "startDate": "2026-06-19",
      "endDate": "2026-06-21",
      "lat": 51.086394342,
      "lng": 17.049946101,
      "sourceMapUrl": "https://gabaryty.ekosystem.wroc.pl/?lat=51.086394342&lng=17.049946101&zoom=16&marker=647",
      "sourcePageUrl": "https://gabaryty.ekosystem.wroc.pl/tabela-wywozu-odpadow/",
      "syncVersion": "2026-06-18T14:46:28.358Z",
      "syncedAt": "2026-06-18T14:46:28.358Z"
    },
    {
      "id": "eko-e1f26890342d9b11",
      "address": "Jesionowa 26",
      "district": "Tarnogaj",
      "startDate": "2026-06-19",
      "endDate": "2026-06-21",
      "lat": 51.086825667,
      "lng": 17.050229103,
      "sourceMapUrl": "https://gabaryty.ekosystem.wroc.pl/?lat=51.086825667&lng=17.050229103&zoom=16&marker=648",
      "sourcePageUrl": "https://gabaryty.ekosystem.wroc.pl/tabela-wywozu-odpadow/",
      "syncVersion": "2026-06-18T14:46:28.358Z",
      "syncedAt": "2026-06-18T14:46:28.358Z"
    },
    {
      "id": "eko-0fd8e7d849f679a7",
      "address": "Jutrosińska 15",
      "district": "Karłowice - Różanka",
      "startDate": "2026-06-19",
      "endDate": "2026-06-21",
      "lat": 51.14640802,
      "lng": 17.044107791,
      "sourceMapUrl": "https://gabaryty.ekosystem.wroc.pl/?lat=51.14640802&lng=17.044107791&zoom=16&marker=664",
      "sourcePageUrl": "https://gabaryty.ekosystem.wroc.pl/tabela-wywozu-odpadow/",
      "syncVersion": "2026-06-18T14:46:28.358Z",
      "syncedAt": "2026-06-18T14:46:28.358Z"
    },
    {
      "id": "eko-67128b55bd9e2642",
      "address": "Kawalerzystów 33",
      "district": "Krzyki - Partynice",
      "startDate": "2026-06-19",
      "endDate": "2026-06-21",
      "lat": 51.061537151,
      "lng": 17.005139594,
      "sourceMapUrl": "https://gabaryty.ekosystem.wroc.pl/?lat=51.061537151&lng=17.005139594&zoom=16&marker=704",
      "sourcePageUrl": "https://gabaryty.ekosystem.wroc.pl/tabela-wywozu-odpadow/",
      "syncVersion": "2026-06-18T14:46:28.358Z",
      "syncedAt": "2026-06-18T14:46:28.358Z"
    },
    {
      "id": "eko-7bfb09f41d9abc7a",
      "address": "Kleczkowska 46",
      "district": "Kleczków",
      "startDate": "2026-06-19",
      "endDate": "2026-06-21",
      "lat": 51.126869531,
      "lng": 17.028430384,
      "sourceMapUrl": "https://gabaryty.ekosystem.wroc.pl/?lat=51.126869531&lng=17.028430384&zoom=16&marker=720",
      "sourcePageUrl": "https://gabaryty.ekosystem.wroc.pl/tabela-wywozu-odpadow/",
      "syncVersion": "2026-06-18T14:46:28.358Z",
      "syncedAt": "2026-06-18T14:46:28.358Z"
    },
    {
      "id": "eko-bd61219de3cdbea2",
      "address": "Kłokoczycka 202",
      "district": "Psie Pole - Zawidawie",
      "startDate": "2026-06-19",
      "endDate": "2026-06-21",
      "lat": 51.159079634764,
      "lng": 17.088510319457,
      "sourceMapUrl": "https://gabaryty.ekosystem.wroc.pl/?lat=51.159079634764&lng=17.088510319457&zoom=16&marker=903",
      "sourcePageUrl": "https://gabaryty.ekosystem.wroc.pl/tabela-wywozu-odpadow/",
      "syncVersion": "2026-06-18T14:46:28.358Z",
      "syncedAt": "2026-06-18T14:46:28.358Z"
    },
    {
      "id": "eko-c8bcfa4a06908231",
      "address": "Kozanowska 107",
      "district": "Pilczyce - Kozanów - Popowice Płn.",
      "startDate": "2026-06-19",
      "endDate": "2026-06-21",
      "lat": 51.138749488,
      "lng": 16.966877057,
      "sourceMapUrl": "https://gabaryty.ekosystem.wroc.pl/?lat=51.138749488&lng=16.966877057&zoom=16&marker=810",
      "sourcePageUrl": "https://gabaryty.ekosystem.wroc.pl/tabela-wywozu-odpadow/",
      "syncVersion": "2026-06-18T14:46:28.358Z",
      "syncedAt": "2026-06-18T14:46:28.358Z"
    },
    {
      "id": "eko-3e448cd987355b86",
      "address": "Krotoszyńska 44",
      "district": "Osobowice - Rędzin",
      "startDate": "2026-06-19",
      "endDate": "2026-06-21",
      "lat": 51.14312725,
      "lng": 16.997770569,
      "sourceMapUrl": "https://gabaryty.ekosystem.wroc.pl/?lat=51.14312725&lng=16.997770569&zoom=16&marker=835",
      "sourcePageUrl": "https://gabaryty.ekosystem.wroc.pl/tabela-wywozu-odpadow/",
      "syncVersion": "2026-06-18T14:46:28.358Z",
      "syncedAt": "2026-06-18T14:46:28.358Z"
    },
    {
      "id": "eko-4c82a4e42e601bbe",
      "address": "Krucza 25",
      "district": "Powstańców Śląskich",
      "startDate": "2026-06-19",
      "endDate": "2026-06-21",
      "lat": 51.094276904,
      "lng": 17.012000515,
      "sourceMapUrl": "https://gabaryty.ekosystem.wroc.pl/?lat=51.094276904&lng=17.012000515&zoom=16&marker=841",
      "sourcePageUrl": "https://gabaryty.ekosystem.wroc.pl/tabela-wywozu-odpadow/",
      "syncVersion": "2026-06-18T14:46:28.358Z",
      "syncedAt": "2026-06-18T14:46:28.358Z"
    },
    {
      "id": "eko-b26bf0a2ab7739c7",
      "address": "Krucza 43",
      "district": "Gajowice",
      "startDate": "2026-06-19",
      "endDate": "2026-06-21",
      "lat": 51.093877431,
      "lng": 17.007938153,
      "sourceMapUrl": "https://gabaryty.ekosystem.wroc.pl/?lat=51.093877431&lng=17.007938153&zoom=16&marker=842",
      "sourcePageUrl": "https://gabaryty.ekosystem.wroc.pl/tabela-wywozu-odpadow/",
      "syncVersion": "2026-06-18T14:46:28.358Z",
      "syncedAt": "2026-06-18T14:46:28.358Z"
    },
    {
      "id": "eko-2ed669f18743318d",
      "address": "Krucza 75",
      "district": "Gajowice",
      "startDate": "2026-06-19",
      "endDate": "2026-06-21",
      "lat": 51.093855554,
      "lng": 16.999988883,
      "sourceMapUrl": "https://gabaryty.ekosystem.wroc.pl/?lat=51.093855554&lng=16.999988883&zoom=16&marker=845",
      "sourcePageUrl": "https://gabaryty.ekosystem.wroc.pl/tabela-wywozu-odpadow/",
      "syncVersion": "2026-06-18T14:46:28.358Z",
      "syncedAt": "2026-06-18T14:46:28.358Z"
    },
    {
      "id": "eko-f8e1cdeb1611ad06",
      "address": "Krucza 80",
      "district": "Gajowice",
      "startDate": "2026-06-19",
      "endDate": "2026-06-21",
      "lat": 51.093279259,
      "lng": 17.006889486,
      "sourceMapUrl": "https://gabaryty.ekosystem.wroc.pl/?lat=51.093279259&lng=17.006889486&zoom=16&marker=846",
      "sourcePageUrl": "https://gabaryty.ekosystem.wroc.pl/tabela-wywozu-odpadow/",
      "syncVersion": "2026-06-18T14:46:28.358Z",
      "syncedAt": "2026-06-18T14:46:28.358Z"
    },
    {
      "id": "eko-79ba4d2b789f09fe",
      "address": "Krynicka 21",
      "district": "Gaj",
      "startDate": "2026-06-19",
      "endDate": "2026-06-21",
      "lat": 51.080848447,
      "lng": 17.045969116,
      "sourceMapUrl": "https://gabaryty.ekosystem.wroc.pl/?lat=51.080848447&lng=17.045969116&zoom=16&marker=854",
      "sourcePageUrl": "https://gabaryty.ekosystem.wroc.pl/tabela-wywozu-odpadow/",
      "syncVersion": "2026-06-18T14:46:28.358Z",
      "syncedAt": "2026-06-18T14:46:28.358Z"
    },
    {
      "id": "eko-f278dbc68a69f1b6",
      "address": "ks. Bonczyka 10",
      "district": "Karłowice - Różanka",
      "startDate": "2026-06-19",
      "endDate": "2026-06-21",
      "lat": 51.13557775,
      "lng": 17.038722881,
      "sourceMapUrl": "https://gabaryty.ekosystem.wroc.pl/?lat=51.13557775&lng=17.038722881&zoom=16&marker=878",
      "sourcePageUrl": "https://gabaryty.ekosystem.wroc.pl/tabela-wywozu-odpadow/",
      "syncVersion": "2026-06-18T14:46:28.358Z",
      "syncedAt": "2026-06-18T14:46:28.358Z"
    },
    {
      "id": "eko-edb243b662665b6b",
      "address": "Księgarska 6",
      "district": "Widawa",
      "startDate": "2026-06-19",
      "endDate": "2026-06-21",
      "lat": 51.175611602,
      "lng": 17.020394845,
      "sourceMapUrl": "https://gabaryty.ekosystem.wroc.pl/?lat=51.175611602&lng=17.020394845&zoom=16&marker=2128",
      "sourcePageUrl": "https://gabaryty.ekosystem.wroc.pl/tabela-wywozu-odpadow/",
      "syncVersion": "2026-06-18T14:46:28.358Z",
      "syncedAt": "2026-06-18T14:46:28.358Z"
    },
    {
      "id": "eko-7648101b765fcb0e",
      "address": "Kurlandzka 55",
      "district": "Psie Pole - Zawidawie",
      "startDate": "2026-06-19",
      "endDate": "2026-06-21",
      "lat": 51.14138149349,
      "lng": 17.138987296339,
      "sourceMapUrl": "https://gabaryty.ekosystem.wroc.pl/?lat=51.14138149349&lng=17.138987296339&zoom=16&marker=896",
      "sourcePageUrl": "https://gabaryty.ekosystem.wroc.pl/tabela-wywozu-odpadow/",
      "syncVersion": "2026-06-18T14:46:28.358Z",
      "syncedAt": "2026-06-18T14:46:28.358Z"
    },
    {
      "id": "eko-22da32242c6506a7",
      "address": "Legnicka 112",
      "district": "Gądów - Popowice Płd.",
      "startDate": "2026-06-19",
      "endDate": "2026-06-21",
      "lat": 51.124378132,
      "lng": 16.981633276,
      "sourceMapUrl": "https://gabaryty.ekosystem.wroc.pl/?lat=51.124378132&lng=16.981633276&zoom=16&marker=2134",
      "sourcePageUrl": "https://gabaryty.ekosystem.wroc.pl/tabela-wywozu-odpadow/",
      "syncVersion": "2026-06-18T14:46:28.358Z",
      "syncedAt": "2026-06-18T14:46:28.358Z"
    },
    {
      "id": "eko-675671f338f6b5fc",
      "address": "Leonarda da Vinci 17",
      "district": "Brochów",
      "startDate": "2026-06-19",
      "endDate": "2026-06-21",
      "lat": 51.067997186,
      "lng": 17.077491696,
      "sourceMapUrl": "https://gabaryty.ekosystem.wroc.pl/?lat=51.067997186&lng=17.077491696&zoom=16&marker=922",
      "sourcePageUrl": "https://gabaryty.ekosystem.wroc.pl/tabela-wywozu-odpadow/",
      "syncVersion": "2026-06-18T14:46:28.358Z",
      "syncedAt": "2026-06-18T14:46:28.358Z"
    },
    {
      "id": "eko-2a18a88a76a816cc",
      "address": "Litewska 14",
      "district": "Psie Pole - Zawidawie",
      "startDate": "2026-06-19",
      "endDate": "2026-06-21",
      "lat": 51.142359342,
      "lng": 17.12648729,
      "sourceMapUrl": "https://gabaryty.ekosystem.wroc.pl/?lat=51.142359342&lng=17.12648729&zoom=16&marker=930",
      "sourcePageUrl": "https://gabaryty.ekosystem.wroc.pl/tabela-wywozu-odpadow/",
      "syncVersion": "2026-06-18T14:46:28.358Z",
      "syncedAt": "2026-06-18T14:46:28.358Z"
    },
    {
      "id": "eko-a62bd19548256e77",
      "address": "Litewska 6",
      "district": "Psie Pole - Zawidawie",
      "startDate": "2026-06-19",
      "endDate": "2026-06-21",
      "lat": 51.142261882,
      "lng": 17.124930745,
      "sourceMapUrl": "https://gabaryty.ekosystem.wroc.pl/?lat=51.142261882&lng=17.124930745&zoom=16&marker=932",
      "sourcePageUrl": "https://gabaryty.ekosystem.wroc.pl/tabela-wywozu-odpadow/",
      "syncVersion": "2026-06-18T14:46:28.358Z",
      "syncedAt": "2026-06-18T14:46:28.358Z"
    },
    {
      "id": "eko-90b87dcda70de5ff",
      "address": "Magellana 33",
      "district": "Strachocin - Swojczyce - Wojnów",
      "startDate": "2026-06-19",
      "endDate": "2026-06-21",
      "lat": 51.111759326,
      "lng": 17.11939749,
      "sourceMapUrl": "https://gabaryty.ekosystem.wroc.pl/?lat=51.111759326&lng=17.11939749&zoom=16&marker=964",
      "sourcePageUrl": "https://gabaryty.ekosystem.wroc.pl/tabela-wywozu-odpadow/",
      "syncVersion": "2026-06-18T14:46:28.358Z",
      "syncedAt": "2026-06-18T14:46:28.358Z"
    },
    {
      "id": "eko-349d354b107c8b00",
      "address": "Marszowicka 1",
      "district": "Leśnica",
      "startDate": "2026-06-19",
      "endDate": "2026-06-21",
      "lat": 51.167394868,
      "lng": 16.890340375,
      "sourceMapUrl": "https://gabaryty.ekosystem.wroc.pl/?lat=51.167394868&lng=16.890340375&zoom=16&marker=976",
      "sourcePageUrl": "https://gabaryty.ekosystem.wroc.pl/tabela-wywozu-odpadow/",
      "syncVersion": "2026-06-18T14:46:28.358Z",
      "syncedAt": "2026-06-18T14:46:28.358Z"
    },
    {
      "id": "eko-0201134901d5dcf1",
      "address": "Metalowców 29a",
      "district": "Pilczyce - Kozanów - Popowice Płn.",
      "startDate": "2026-06-19",
      "endDate": "2026-06-21",
      "lat": 51.132165565,
      "lng": 16.955769132,
      "sourceMapUrl": "https://gabaryty.ekosystem.wroc.pl/?lat=51.132165565&lng=16.955769132&zoom=16&marker=992",
      "sourcePageUrl": "https://gabaryty.ekosystem.wroc.pl/tabela-wywozu-odpadow/",
      "syncVersion": "2026-06-18T14:46:28.358Z",
      "syncedAt": "2026-06-18T14:46:28.358Z"
    },
    {
      "id": "eko-fe7e4dd3158cbf89",
      "address": "Mickiewicza 111",
      "district": "Biskupin - Sępolno - Dąbie - Bartoszowice",
      "startDate": "2026-06-19",
      "endDate": "2026-06-21",
      "lat": 51.113011219,
      "lng": 17.105604028,
      "sourceMapUrl": "https://gabaryty.ekosystem.wroc.pl/?lat=51.113011219&lng=17.105604028&zoom=16&marker=999",
      "sourcePageUrl": "https://gabaryty.ekosystem.wroc.pl/tabela-wywozu-odpadow/",
      "syncVersion": "2026-06-18T14:46:28.358Z",
      "syncedAt": "2026-06-18T14:46:28.358Z"
    },
    {
      "id": "eko-ade3fc6347db3115",
      "address": "Mielecka 31",
      "district": "Gajowice",
      "startDate": "2026-06-19",
      "endDate": "2026-06-21",
      "lat": 51.090510707,
      "lng": 17.001010159,
      "sourceMapUrl": "https://gabaryty.ekosystem.wroc.pl/?lat=51.090510707&lng=17.001010159&zoom=16&marker=1010",
      "sourcePageUrl": "https://gabaryty.ekosystem.wroc.pl/tabela-wywozu-odpadow/",
      "syncVersion": "2026-06-18T14:46:28.358Z",
      "syncedAt": "2026-06-18T14:46:28.358Z"
    },
    {
      "id": "eko-4435ec163b68e9fb",
      "address": "Miernicza 18",
      "district": "Przedmieście Oławskie",
      "startDate": "2026-06-19",
      "endDate": "2026-06-21",
      "lat": 51.101714114,
      "lng": 17.049132551,
      "sourceMapUrl": "https://gabaryty.ekosystem.wroc.pl/?lat=51.101714114&lng=17.049132551&zoom=16&marker=1012",
      "sourcePageUrl": "https://gabaryty.ekosystem.wroc.pl/tabela-wywozu-odpadow/",
      "syncVersion": "2026-06-18T14:46:28.358Z",
      "syncedAt": "2026-06-18T14:46:28.358Z"
    },
    {
      "id": "eko-0277f592fb338722",
      "address": "Mokrzańska 35",
      "district": "Leśnica",
      "startDate": "2026-06-19",
      "endDate": "2026-06-21",
      "lat": 51.151538541,
      "lng": 16.856118734,
      "sourceMapUrl": "https://gabaryty.ekosystem.wroc.pl/?lat=51.151538541&lng=16.856118734&zoom=16&marker=1045",
      "sourcePageUrl": "https://gabaryty.ekosystem.wroc.pl/tabela-wywozu-odpadow/",
      "syncVersion": "2026-06-18T14:46:28.358Z",
      "syncedAt": "2026-06-18T14:46:28.358Z"
    },
    {
      "id": "eko-3a54965dfcfaa624",
      "address": "Mościckiego 1",
      "district": "Brochów",
      "startDate": "2026-06-19",
      "endDate": "2026-06-21",
      "lat": 51.069873013,
      "lng": 17.080162461,
      "sourceMapUrl": "https://gabaryty.ekosystem.wroc.pl/?lat=51.069873013&lng=17.080162461&zoom=16&marker=1050",
      "sourcePageUrl": "https://gabaryty.ekosystem.wroc.pl/tabela-wywozu-odpadow/",
      "syncVersion": "2026-06-18T14:46:28.358Z",
      "syncedAt": "2026-06-18T14:46:28.358Z"
    },
    {
      "id": "eko-0b808a9b71a20e56",
      "address": "Nenckiego 29",
      "district": "Ołtaszyn",
      "startDate": "2026-06-19",
      "endDate": "2026-06-21",
      "lat": 51.059570162,
      "lng": 17.025533921,
      "sourceMapUrl": "https://gabaryty.ekosystem.wroc.pl/?lat=51.059570162&lng=17.025533921&zoom=16&marker=1082",
      "sourcePageUrl": "https://gabaryty.ekosystem.wroc.pl/tabela-wywozu-odpadow/",
      "syncVersion": "2026-06-18T14:46:28.358Z",
      "syncedAt": "2026-06-18T14:46:28.358Z"
    },